{
"type": "FeatureCollection",
"features": [
{
"type": "Feature",
"geometry": {
"type": "Point",
"coordinates": [
12.5768605,
47.9417301
]
},
"properties": {
"name": "Umrüstung der Straßenbeleuchtung von Quecksilber-Dampflampen auf LED-Technik in Traunreut",
"description": "74688",
"field_project_localitiy": "Traunreut",
"field_project_zip": 83301
}
},
{
"type": "Feature",
"geometry": {
"type": "Point",
"coordinates": [
9.2523179,
48.9609405
]
},
"properties": {
"name": "Sanierung eines Teilbereichs der Straßenbeleuchtung der Gemeinde Murr auf LED-Technik",
"description": "74642",
"field_project_localitiy": "Murr",
"field_project_zip": 71711
}
},
{
"type": "Feature",
"geometry": {
"type": "Point",
"coordinates": [
12.6384037,
47.8457574
]
},
"properties": {
"name": "Energetische Sanierung der Innenbeleuchtung im Landratsamt Traunstein, Casino und Bürogebäude",
"description": "74661",
"field_project_localitiy": "Traunstein",
"field_project_zip": 83278
}
},
{
"type": "Feature",
"geometry": {
"type": "Point",
"coordinates": [
6.7522865,
49.2914606
]
},
"properties": {
"name": "Austausch alter Pumpen durch Hocheffizienzpumpen inkl. Hydraulischer Abgleich",
"description": "74677",
"field_project_localitiy": "Saarlouis",
"field_project_zip": 66740
}
},
{
"type": "Feature",
"geometry": {
"type": "Point",
"coordinates": [
10.1458202,
48.0011105
]
},
"properties": {
"name": "Umrüstung der Straßenbeleuchtung auf LED-Technik der Gemeinde Buxheim",
"description": "74644",
"field_project_localitiy": "Buxheim",
"field_project_zip": 87740
}
},
{
"type": "Feature",
"geometry": {
"type": "Point",
"coordinates": [
9.8549196,
51.320462
]
},
"properties": {
"name": "Sanierung der Hallenbeleuchtung in der Mehrzweckhalle Gertenbach",
"description": "74662",
"field_project_localitiy": "Witzenhausen",
"field_project_zip": 37213
}
},
{
"type": "Feature",
"geometry": {
"type": "Point",
"coordinates": [
7.5156357,
51.8587626
]
},
"properties": {
"name": "Energieeinsparung durch LED Beleuchtung in dem Kindergarten Steverspatzen der Gemeinde Senden",
"description": "74678",
"field_project_localitiy": "Senden",
"field_project_zip": 48308
}
},
{
"type": "Feature",
"geometry": {
"type": "Point",
"coordinates": [
9.7901525,
48.0841473
]
},
"properties": {
"name": "Einbau hocheffizienter LED-Leuchten in die Räume des Wieland-Gymnasiums in Biberach",
"description": "74645",
"field_project_localitiy": "Biberach",
"field_project_zip": 88400
}
},
{
"type": "Feature",
"geometry": {
"type": "Point",
"coordinates": [
9.8659196,
51.320462
]
},
"properties": {
"name": "Sanierung der Hallenbeleuchtung in der Turnhalle Unterrieden",
"description": "74663",
"field_project_localitiy": "Witzenhausen",
"field_project_zip": 37213
}
},
{
"type": "Feature",
"geometry": {
"type": "Point",
"coordinates": [
8.5072394,
49.5941455
]
},
"properties": {
"name": "Austausch von Heizungsumwälz- und Beckenwasserpumpen in den Biedensand Bädern Lampertheim",
"description": "74679",
"field_project_localitiy": "Lampertheim",
"field_project_zip": 68623
}
},
{
"type": "Feature",
"geometry": {
"type": "Point",
"coordinates": [
7.6865865,
51.5696471
]
},
"properties": {
"name": "Nahmobilitätskonzept für die Stadt Kamen",
"description": "74646",
"field_project_localitiy": "Kamen",
"field_project_zip": 59174
}
},
{
"type": "Feature",
"geometry": {
"type": "Point",
"coordinates": [
11.6649912,
47.9718182
]
},
"properties": {
"name": "Optimierung von Heizungs- und Warmwasserzirkulationspumpen in der Sporthalle Sauerlach",
"description": "74664",
"field_project_localitiy": "Sauerlach",
"field_project_zip": 82054
}
},
{
"type": "Feature",
"geometry": {
"type": "Point",
"coordinates": [
11.5761524,
47.7394737
]
},
"properties": {
"name": "Sanierung der Innenbeleuchtung in der Schulküche und im Lehrerzimmer der Südschule",
"description": "74680",
"field_project_localitiy": "Bad Tölz",
"field_project_zip": 83646
}
},
{
"type": "Feature",
"geometry": {
"type": "Point",
"coordinates": [
8.444333,
49.4
]
},
"properties": {
"name": "Beleuchtungssanierung der Albert-Schweizer-Schule in Altrip",
"description": "74647",
"field_project_localitiy": "Waldsee",
"field_project_zip": 67165
}
},
{
"type": "Feature",
"geometry": {
"type": "Point",
"coordinates": [
11.0577098,
49.3284557
]
},
"properties": {
"name": "Sanierung der Beleuchtung im Kindergarten Forsthof Flur, Zwieseltalschule Klas-senraum, SVE Flur Erdgeschoss, Adam-Kraft-Gymnasium-Altbau Klassenzimmer",
"description": "74665",
"field_project_localitiy": "Schwabach",
"field_project_zip": 91126
}
},
{
"type": "Feature",
"geometry": {
"type": "Point",
"coordinates": [
8.6366519,
52.1577458
]
},
"properties": {
"name": "LED-Sanierung der Straßenbeleuchtung in verschiedenen Ortsteilen der Gemeinde Hiddenhausen (3. Antrag 2016)",
"description": "74681",
"field_project_localitiy": "Hiddenhausen",
"field_project_zip": 32120
}
},
{
"type": "Feature",
"geometry": {
"type": "Point",
"coordinates": [
7.8614616,
52.7843588
]
},
"properties": {
"name": "Verbesserung der Radverkehrsinfrastruktur &quot;Darreler Straße&quot; im Gemeindeteil Hemmelte der Geimeinde Lastrup",
"description": "74648",
"field_project_localitiy": "Lastrup",
"field_project_zip": 49688
}
},
{
"type": "Feature",
"geometry": {
"type": "Point",
"coordinates": [
9.1998226,
52.3032099
]
},
"properties": {
"name": "Energieeinsparung durch LED Beleuchtung in der Turnhalle in der integrierten Gesamtschule (IGS) Helpsen, Landkreis Schaumburg",
"description": "74666",
"field_project_localitiy": "Stadthagen",
"field_project_zip": 31655
}
},
{
"type": "Feature",
"geometry": {
"type": "Point",
"coordinates": [
7.0869865,
50.5978949
]
},
"properties": {
"name": "Sanierung der Innen- und Hallenbeleuchtung der Turnhalle Pech",
"description": "74682",
"field_project_localitiy": "Wachtberg",
"field_project_zip": 53343
}
},
{
"type": "Feature",
"geometry": {
"type": "Point",
"coordinates": [
9.7784612,
47.776013
]
},
"properties": {
"name": "Einbau von dezentralen raumlufttechnischen Geräten mit Wärmerückgewinnung in der Grund- und Gemeinschaftsschule in der Gemeinde Vogt",
"description": "74649",
"field_project_localitiy": "Vogt",
"field_project_zip": 88267
}
},
{
"type": "Feature",
"geometry": {
"type": "Point",
"coordinates": [
9.8121525,
48.0841473
]
},
"properties": {
"name": "Ersatz fest stehender Sonnenschutzgitter durch außen liegenden Sonnenschutz mit Lichtlenkung im Oberlichtbereich im Wieland-Gymnasium in Biberach",
"description": "74667",
"field_project_localitiy": "Biberach",
"field_project_zip": 88400
}
},
{
"type": "Feature",
"geometry": {
"type": "Point",
"coordinates": [
7.6933487,
51.9255161
]
},
"properties": {
"name": "Erneuerung von Umwälzpumpen in Hocheffizienztechnik in Schule und Sport Stadt Münster",
"description": "74683",
"field_project_localitiy": "Münster",
"field_project_zip": 48155
}
},
{
"type": "Feature",
"geometry": {
"type": "Point",
"coordinates": [
12.6604037,
47.8457574
]
},
"properties": {
"name": "Energetische Sanierung der Innenbeleuchtung in der Turnhalle der Kaufmännischen Berufsschule II in Traunstein",
"description": "74650",
"field_project_localitiy": "Traunstein",
"field_project_zip": 83278
}
},
{
"type": "Feature",
"geometry": {
"type": "Point",
"coordinates": [
12.4260263,
51.3200403
]
},
"properties": {
"name": "Sanierung der Innenbeleuchtung auf LED-Technik in der Stiftung Völkerschlachtdenkmal Leipzig/Forum 1813",
"description": "74668",
"field_project_localitiy": "Leipzig",
"field_project_zip": 4299
}
},
{
"type": "Feature",
"geometry": {
"type": "Point",
"coordinates": [
8.2851304,
51.3291245
]
},
"properties": {
"name": "Sanierung der Innenbeleuchtung in den Klassenräumen des Schulzentrums Meschede - Hauptschule und des Schulzentrums Meschede - Gymnasium",
"description": "74684",
"field_project_localitiy": "Meschede",
"field_project_zip": 59872
}
},
{
"type": "Feature",
"geometry": {
"type": "Point",
"coordinates": [
12.6714037,
47.8457574
]
},
"properties": {
"name": "Energetische Sanierung der Innenbeleuchtung in der Realschule Marquartstein",
"description": "74651",
"field_project_localitiy": "Traunstein",
"field_project_zip": 83278
}
},
{
"type": "Feature",
"geometry": {
"type": "Point",
"coordinates": [
6.4769205,
50.5179601
]
},
"properties": {
"name": "Sanierung der Innenbeleuchtung in Schulgebäuden in der Stadt Schleiden",
"description": "74669",
"field_project_localitiy": "Schleiden",
"field_project_zip": 53937
}
},
{
"type": "Feature",
"geometry": {
"type": "Point",
"coordinates": [
10.1355268,
52.8084526
]
},
"properties": {
"name": "Energieeinsparung durch LED-Beleuchtung in dem Bürgerhaus (vorher Verbrauchermarkt) der Gemeinde Südheide",
"description": "74685",
"field_project_localitiy": "Südheide",
"field_project_zip": 29320
}
},
{
"type": "Feature",
"geometry": {
"type": "Point",
"coordinates": [
6.5757259,
51.4423827
]
},
"properties": {
"name": "Energieeffiziente Beleuchtung im ortsgeschichtlichen Museum Neukirchn-Vluyn e.V.",
"description": "74652",
"field_project_localitiy": "Neukirchen-Vluyn",
"field_project_zip": 47506
}
},
{
"type": "Feature",
"geometry": {
"type": "Point",
"coordinates": [
7.6439704,
50.3752264
]
},
"properties": {
"name": "Modernisierung der Innenbeleuchtung der Parkhäuser Marienburg und Eulerstraße",
"description": "74670",
"field_project_localitiy": "Vallendar",
"field_project_zip": 56179
}
},
{
"type": "Feature",
"geometry": {
"type": "Point",
"coordinates": [
13.482597,
48.8127528
]
},
"properties": {
"name": "Sanierung der Straßenbeleuchtung mittels LED in der Gemeinde Ringelai",
"description": "74686",
"field_project_localitiy": "Ringelai",
"field_project_zip": 94160
}
},
{
"type": "Feature",
"geometry": {
"type": "Point",
"coordinates": [
10.2781316,
47.4602768
]
},
"properties": {
"name": "Sanierung der Straßenbeleuchtung auf LED Technik in der Gemeinde Balderschwang",
"description": "74687",
"field_project_localitiy": "Balderschwang",
"field_project_zip": 87538
}
},
{
"type": "Feature",
"geometry": {
"type": "Point",
"coordinates": [
9.7894612,
47.776013
]
},
"properties": {
"name": "Sanierung der Innenbeleuchtung in der Grund- und Gemeinschaftsschule in der Gemeinde Vogt",
"description": "74653",
"field_project_localitiy": "Vogt",
"field_project_zip": 88267
}
},
{
"type": "Feature",
"geometry": {
"type": "Point",
"coordinates": [
8.4097048,
49.3828647
]
},
"properties": {
"name": "Sanierung der Straßenbeleuchtung 2016 Stadt Schifferstadt",
"description": "74671",
"field_project_localitiy": "Schifferstadt",
"field_project_zip": 67105
}
},
{
"type": "Feature",
"geometry": {
"type": "Point",
"coordinates": [
9.8004612,
47.776013
]
},
"properties": {
"name": "Einbau einer Gebäudeleittechnik für Heizung, Lüftung, Santär, Elektro- und MSR-Technik in der Grund- und Gemeinschaftsschule in der Gemeinde Vogt",
"description": "74654",
"field_project_localitiy": "Vogt",
"field_project_zip": 88267
}
},
{
"type": "Feature",
"geometry": {
"type": "Point",
"coordinates": [
8.4805019,
48.0564208
]
},
"properties": {
"name": "Erneuerung Lichtsignalanlagen (LSA) Stadtgebiet Villingen-Schwenningen",
"description": "74672",
"field_project_localitiy": "Villingen-Schwenningen",
"field_project_zip": 78050
}
},
{
"type": "Feature",
"geometry": {
"type": "Point",
"coordinates": [
10.0639676,
47.6839747
]
},
"properties": {
"name": "Sanierung der Innen- und Hallenbeleuchtung in der Grundschule und Schulsporthalle in Rohrdorf",
"description": "74656",
"field_project_localitiy": "Isny",
"field_project_zip": 88316
}
},
{
"type": "Feature",
"geometry": {
"type": "Point",
"coordinates": [
8.8410759,
49.872082
]
},
"properties": {
"name": "Schutzstreifenmarkierung Waldstraße und Bertha-von-Suttner-Straße",
"description": "74673",
"field_project_localitiy": "Groß-Zimmern",
"field_project_zip": 64846
}
},
{
"type": "Feature",
"geometry": {
"type": "Point",
"coordinates": [
12.0149306,
50.0179087
]
},
"properties": {
"name": "Umsetzung des Integrierten Klimaschutzkonzepts des Landkreises Wunsiedel i. Fichtelgebirge und seiner Kommunen",
"description": "74638",
"field_project_localitiy": "Wunsiedel",
"field_project_zip": 95632
}
},
{
"type": "Feature",
"geometry": {
"type": "Point",
"coordinates": [
12.8690362,
48.7806071
]
},
"properties": {
"name": "Umrüstung der Straßenbeleuchtung in Plattling",
"description": "74657",
"field_project_localitiy": "Plattling",
"field_project_zip": 94447
}
},
{
"type": "Feature",
"geometry": {
"type": "Point",
"coordinates": [
9.6335176,
47.8747863
]
},
"properties": {
"name": "Umrüstung Außen- und Straßenbeleuchtung auf LED-Technik",
"description": "74674",
"field_project_localitiy": "Wolpertswende",
"field_project_zip": 88284
}
},
{
"type": "Feature",
"geometry": {
"type": "Point",
"coordinates": [
8.127754,
51.5491476
]
},
"properties": {
"name": "Ausgewählte Maßnahme Elektromobilität (Fuhrpark) im Rahmen der Stelle für Klimaschutzmanagement im Kreis Soest",
"description": "74639",
"field_project_localitiy": "Soest",
"field_project_zip": 59494
}
},
{
"type": "Feature",
"geometry": {
"type": "Point",
"coordinates": [
9.8011525,
48.0841473
]
},
"properties": {
"name": "Nachrüstung dezentraler raumlufttechnischer Geräte mit einer hocheffizienten Wärmerückgewinnung im Wieland-Gymnasium in Biberach.",
"description": "74658",
"field_project_localitiy": "Biberach",
"field_project_zip": 88400
}
},
{
"type": "Feature",
"geometry": {
"type": "Point",
"coordinates": [
7.8143097,
48.1610099
]
},
"properties": {
"name": "Sanierung der Innenbeleuchtung im Kindergarten Sophie Roth in der Gemeinde Malterdingen",
"description": "74675",
"field_project_localitiy": "Malterdingen",
"field_project_zip": 79364
}
},
{
"type": "Feature",
"geometry": {
"type": "Point",
"coordinates": [
8.594487,
49.980722
]
},
"properties": {
"name": "Rathaus Walldorf – Effizienzsteigerung durch Einsatz einer Adsorptionskältemaschine für die Serverkühlung",
"description": "74640",
"field_project_localitiy": "Mörfelden-Walldorf",
"field_project_zip": 64546
}
},
{
"type": "Feature",
"geometry": {
"type": "Point",
"coordinates": [
13.809441,
52.8239072
]
},
"properties": {
"name": "Umrüstung auf LED Beleuchtung in der Oberschule am Schulstandort Schwanebeck durch den Landkreis Barnim",
"description": "74659",
"field_project_localitiy": "Eberswalde",
"field_project_zip": 16225
}
},
{
"type": "Feature",
"geometry": {
"type": "Point",
"coordinates": [
8.3181304,
51.3291245
]
},
"properties": {
"name": "Sanierung der Strassenbeleuchtung in 59872 Meschede, Arnsberger Strasse, Steinstrasse",
"description": "74676",
"field_project_localitiy": "Meschede",
"field_project_zip": 59872
}
},
{
"type": "Feature",
"geometry": {
"type": "Point",
"coordinates": [
9.8438532,
47.6269283
]
},
"properties": {
"name": "Energetische Sanierung der Innenbeleuchtung in der Turn- und Festhalle Maria-Thann in Hergatz",
"description": "74606",
"field_project_localitiy": "Hergatz",
"field_project_zip": 88145
}
},
{
"type": "Feature",
"geometry": {
"type": "Point",
"coordinates": [
10.4300128,
50.5739121
]
},
"properties": {
"name": "Umrüstung der Straßenbeleuchtung in Meiningen von HQL und NAV auf eine energieeffiziente Straßenbeleuchtung (LED) - Teil 1",
"description": "74624",
"field_project_localitiy": "Meiningen",
"field_project_zip": 98617
}
},
{
"type": "Feature",
"geometry": {
"type": "Point",
"coordinates": [
11.0277508,
50.2873878
]
},
"properties": {
"name": "Umrüstung der Straßenbeleuchtung der Stadt Roedental auf LED Technik",
"description": "74607",
"field_project_localitiy": "Rödental",
"field_project_zip": 96472
}
},
{
"type": "Feature",
"geometry": {
"type": "Point",
"coordinates": [
9.2148545,
49.1203079
]
},
"properties": {
"name": "Reduzierung von Treibhausgas-Emissionen und des Emissionspotenzials der Deponie Vogelsang (GS 1-3)",
"description": "74625",
"field_project_localitiy": "Heilbronn",
"field_project_zip": 74072
}
},
{
"type": "Feature",
"geometry": {
"type": "Point",
"coordinates": [
10.2800311,
51.7073769
]
},
"properties": {
"name": "Sanierung Innenbeleuchtung in Schulen, Oberschule Herzberg am Harz, Unterrichtsräume und Aula",
"description": "74588",
"field_project_localitiy": "Osterode am Harz",
"field_project_zip": 37520
}
},
{
"type": "Feature",
"geometry": {
"type": "Point",
"coordinates": [
9.6075879,
48.9137654
]
},
"properties": {
"name": "Erneuerung der Hallenbeleuchtung Bauhof",
"description": "74608",
"field_project_localitiy": "Althütte",
"field_project_zip": 71566
}
},
{
"type": "Feature",
"geometry": {
"type": "Point",
"coordinates": [
7.4653421,
50.4150027
]
},
"properties": {
"name": "Integriertes Klimaschutzkonzept für die Verbandsgemeinde Weißenthurm",
"description": "74626",
"field_project_localitiy": "Weißenthurm",
"field_project_zip": 56575
}
},
{
"type": "Feature",
"geometry": {
"type": "Point",
"coordinates": [
10.2910311,
51.7073769
]
},
"properties": {
"name": "Sanierung Innenbeleuchtung in Schulen, Gymnasium Herzberg am Harz, Aula",
"description": "74589",
"field_project_localitiy": "Osterode am Harz",
"field_project_zip": 37520
}
},
{
"type": "Feature",
"geometry": {
"type": "Point",
"coordinates": [
8.1454508,
52.6632914
]
},
"properties": {
"name": "Sanierung der Beleuchtung der Grundschule Kardinal-von-Galen",
"description": "74610",
"field_project_localitiy": "Dinklage",
"field_project_zip": 49413
}
},
{
"type": "Feature",
"geometry": {
"type": "Point",
"coordinates": [
7.4763421,
50.4150027
]
},
"properties": {
"name": "Klimaschutzteilkonzept &quot;Klimaschutz in den eigenen Liegenschaften&quot; für die Verbandsgemeinde Weißenthurm",
"description": "74627",
"field_project_localitiy": "Weißenthurm",
"field_project_zip": 56575
}
},
{
"type": "Feature",
"geometry": {
"type": "Point",
"coordinates": [
7.9955736,
49.8493054
]
},
"properties": {
"name": "Umrüstung der ineffizienten Straßenbeleuchtung auf LED-Technik",
"description": "74590",
"field_project_localitiy": "Sprendlingen",
"field_project_zip": 55576
}
},
{
"type": "Feature",
"geometry": {
"type": "Point",
"coordinates": [
7.6594895,
47.8481234
]
},
"properties": {
"name": "Integriertes Klimaschutzkonzept der Gemeinde Buggingen",
"description": "74611",
"field_project_localitiy": "Buggingen",
"field_project_zip": 79426
}
},
{
"type": "Feature",
"geometry": {
"type": "Point",
"coordinates": [
8.5990309,
50.2025478
]
},
"properties": {
"name": "Klimaschutzteilkonzept Klimafreundliche Mobilität für die Stadt Oberursel",
"description": "74628",
"field_project_localitiy": "Oberursel",
"field_project_zip": 61440
}
},
{
"type": "Feature",
"geometry": {
"type": "Point",
"coordinates": [
9.0332027,
49.0031635
]
},
"properties": {
"name": "Umrüstung der Hallenbeleuchtung in der Kirbachtalhalle Hohenhaslach",
"description": "74591",
"field_project_localitiy": "Sachsenheim",
"field_project_zip": 74343
}
},
{
"type": "Feature",
"geometry": {
"type": "Point",
"coordinates": [
7.0601329,
50.7336309
]
},
"properties": {
"name": "Erstellung der Klimaschutzteilkonzepte &quot;Klimafreundliche Abfallentsorgung&quot; &quot;Integrierte Wärmenutzung in Kommunen&quot; und &quot;Klimafreundliche Mobilität in Kommunen - Betriebliches Mobilitätsmanagementkonzept&quot; für den Zweckverband Rheinische Entsorgungs-Kooperat",
"description": "74612",
"field_project_localitiy": "Bonn",
"field_project_zip": 53121
}
},
{
"type": "Feature",
"geometry": {
"type": "Point",
"coordinates": [
12.1279712,
49.0287545
]
},
"properties": {
"name": "Sanierung der Innenbeleuchtung des Landratsamtes Regensburg auf LED-Technik",
"description": "74629",
"field_project_localitiy": "Regensburg",
"field_project_zip": 93059
}
},
{
"type": "Feature",
"geometry": {
"type": "Point",
"coordinates": [
9.2203353,
48.8663519
]
},
"properties": {
"name": "Erneuerung der Gebäudeleittechnik Kinder- und Familienzentrum Neckarweihingen",
"description": "74592",
"field_project_localitiy": "Ludwigsburg",
"field_project_zip": 71638
}
},
{
"type": "Feature",
"geometry": {
"type": "Point",
"coordinates": [
8.0071738,
52.5767513
]
},
"properties": {
"name": "Sanierung der Innenbeleuchtung im Kindergarten der Gemeinde Gehrde",
"description": "74593",
"field_project_localitiy": "Gehrde",
"field_project_zip": 49596
}
},
{
"type": "Feature",
"geometry": {
"type": "Point",
"coordinates": [
8.8469691,
50.1472058
]
},
"properties": {
"name": "Integriertes Klimaschutzteilkonzept in eigenen Liegenschaften und Portfoliomanagement der Stadt Maintal",
"description": "74613",
"field_project_localitiy": "Maintal",
"field_project_zip": 63477
}
},
{
"type": "Feature",
"geometry": {
"type": "Point",
"coordinates": [
8.8301845,
52.1370262
]
},
"properties": {
"name": "Energetische Sanierung der Straßenbeleuchtung in der Stadt Vlotho",
"description": "74630",
"field_project_localitiy": "Vlotho",
"field_project_zip": 32602
}
},
{
"type": "Feature",
"geometry": {
"type": "Point",
"coordinates": [
9.1857957,
48.8541088
]
},
"properties": {
"name": "Umrüstung von zwei konventionellen Signalanlagen auf LED - Technik",
"description": "74594",
"field_project_localitiy": "Kornwestheim",
"field_project_zip": 70806
}
},
{
"type": "Feature",
"geometry": {
"type": "Point",
"coordinates": [
8.236454,
49.9048667
]
},
"properties": {
"name": "Umrüstung der Innen- und Hallenbeleuchtung der Heinz-Kerz-Halle",
"description": "74615",
"field_project_localitiy": "Nieder-Olm",
"field_project_zip": 55268
}
},
{
"type": "Feature",
"geometry": {
"type": "Point",
"coordinates": [
6.9960265,
51.2286663
]
},
"properties": {
"name": "Sanierung der Beleuchtungsanlage in der KITA Laubacher Feld, Champagne, in Mettmann",
"description": "74631",
"field_project_localitiy": "Mettmann",
"field_project_zip": 40822
}
},
{
"type": "Feature",
"geometry": {
"type": "Point",
"coordinates": [
6.666381,
49.7275739
]
},
"properties": {
"name": "Umrüstung der Straßenbeleuchtung auf hochmoderne, energieeffiziente LED-Beleuchtung der Stadt Trier",
"description": "74595",
"field_project_localitiy": "Trier",
"field_project_zip": 54290
}
},
{
"type": "Feature",
"geometry": {
"type": "Point",
"coordinates": [
6.9959492,
50.9485731
]
},
"properties": {
"name": "Realisierung eines Klimaschutzteilkonzepts – Klimaschutz in eigenen Liegenschaften und Portfoliomanagement, Baustein1: Energiemanagement",
"description": "74616",
"field_project_localitiy": "Köln",
"field_project_zip": 50668
}
},
{
"type": "Feature",
"geometry": {
"type": "Point",
"coordinates": [
8.279338,
49.0514423
]
},
"properties": {
"name": "Klimaschutzmanagement Stadt Wörth am Rhein",
"description": "74632",
"field_project_localitiy": "Wörth am Rhein",
"field_project_zip": 76744
}
},
{
"type": "Feature",
"geometry": {
"type": "Point",
"coordinates": [
14.2530998,
51.7442338
]
},
"properties": {
"name": "Energieeffiziente Umstellung der Straßenbeleuchtung auf LED - Beleuchtung in Kolkwitz OT Hänchen",
"description": "74596",
"field_project_localitiy": "Kolkwitz",
"field_project_zip": 3099
}
},
{
"type": "Feature",
"geometry": {
"type": "Point",
"coordinates": [
13.3838893,
52.4529426
]
},
"properties": {
"name": "Sanierung Innenbeleuchtung Dienstgebäude G02 Malmöer Str. 26b",
"description": "74617",
"field_project_localitiy": "Berlin",
"field_project_zip": 12103
}
},
{
"type": "Feature",
"geometry": {
"type": "Point",
"coordinates": [
7.1199865,
50.6198949
]
},
"properties": {
"name": "Energetische Sanierung der Turnhalle Pech",
"description": "74634",
"field_project_localitiy": "Wachtberg",
"field_project_zip": 53343
}
},
{
"type": "Feature",
"geometry": {
"type": "Point",
"coordinates": [
8.3778146,
49.2030244
]
},
"properties": {
"name": "Sanierung der Straßenbeleuchtung 2016/17 in der Stadt Germersheim",
"description": "74597",
"field_project_localitiy": "Germersheim",
"field_project_zip": 76726
}
},
{
"type": "Feature",
"geometry": {
"type": "Point",
"coordinates": [
8.167589,
49.6849053
]
},
"properties": {
"name": "Sanierung der Straßenbeleuchtung im Gebiet Hundskopfstraße in Albig",
"description": "74618",
"field_project_localitiy": "Albig",
"field_project_zip": 55234
}
},
{
"type": "Feature",
"geometry": {
"type": "Point",
"coordinates": [
8.5281035,
51.8819448
]
},
"properties": {
"name": "Energiesparen macht Schule in den Schulen und Kindertagesstätten der Stadt Verl",
"description": "74635",
"field_project_localitiy": "Verl",
"field_project_zip": 33415
}
},
{
"type": "Feature",
"geometry": {
"type": "Point",
"coordinates": [
9.5234424,
48.9223621
]
},
"properties": {
"name": "Umrüstung der Innenbeleuchtung der Sporthalle in Auenwald-Oberbrüden auf LED-Technik",
"description": "74598",
"field_project_localitiy": "Auenwald",
"field_project_zip": 71549
}
},
{
"type": "Feature",
"geometry": {
"type": "Point",
"coordinates": [
8.9993145,
48.6652593
]
},
"properties": {
"name": "Reduzierung von Treibhausgas-Emissionen und des Emissionspotenzials der Deponie Böblingen",
"description": "74619",
"field_project_localitiy": "Böblingen",
"field_project_zip": 71034
}
},
{
"type": "Feature",
"geometry": {
"type": "Point",
"coordinates": [
7.7044387,
51.3015239
]
},
"properties": {
"name": "Förderung einer Stelle für Klimaschutzmanagement zur Umsetzung des Klimaschutzkonzepts der Stadt Altena",
"description": "74636",
"field_project_localitiy": "Altena",
"field_project_zip": 58762
}
},
{
"type": "Feature",
"geometry": {
"type": "Point",
"coordinates": [
8.3733114,
52.2052401
]
},
"properties": {
"name": "Klimaschutz bei der LED-Außen und Straßenbeleuchtung in der Stadt Melle",
"description": "74600",
"field_project_localitiy": "Melle",
"field_project_zip": 49324
}
},
{
"type": "Feature",
"geometry": {
"type": "Point",
"coordinates": [
9.159813,
48.8847044
]
},
"properties": {
"name": "Energetische Sanierung der Straßenbeleuchtung in Ludwigsburg und Kornwestheim",
"description": "74620",
"field_project_localitiy": "Ludwigsburg",
"field_project_zip": 71636
}
},
{
"type": "Feature",
"geometry": {
"type": "Point",
"coordinates": [
9.8766497,
52.2149775
]
},
"properties": {
"name": "Teilumstellung des kommunalen Fuhrparks auf elektrisch betriebene Neufahrzeuge",
"description": "74637",
"field_project_localitiy": "Sarstedt",
"field_project_zip": 31157
}
},
{
"type": "Feature",
"geometry": {
"type": "Point",
"coordinates": [
8.3508274,
52.3198366
]
},
"properties": {
"name": "Umstellung der Innenbeleuchtung im Rathaus Bad Essen auf LED",
"description": "74602",
"field_project_localitiy": "Bad Essen",
"field_project_zip": 49152
}
},
{
"type": "Feature",
"geometry": {
"type": "Point",
"coordinates": [
6.4133213,
51.2520558
]
},
"properties": {
"name": "Optimierung des Gashaushaltes der Siedlungsabfalldeponie Brüggen I",
"description": "74621",
"field_project_localitiy": "Viersen",
"field_project_zip": 41747
}
},
{
"type": "Feature",
"geometry": {
"type": "Point",
"coordinates": [
8.5747273,
49.2935444
]
},
"properties": {
"name": "Sanierung der Flutlichtbeleuchtung des Kunstrasenplatzes der Gemeinde Reilingen",
"description": "74603",
"field_project_localitiy": "Reilingen",
"field_project_zip": 68799
}
},
{
"type": "Feature",
"geometry": {
"type": "Point",
"coordinates": [
6.3803213,
51.2410558
]
},
"properties": {
"name": "Optimierung des Gashaushaltes der Siedlungsabfalldeponie Viersen I",
"description": "74622",
"field_project_localitiy": "Viersen",
"field_project_zip": 41747
}
},
{
"type": "Feature",
"geometry": {
"type": "Point",
"coordinates": [
9.6906458,
50.5410803
]
},
"properties": {
"name": "Klimaschutzteilkonzept für eine klimafreundliche Trinkwasserversorgung im Netzgebiet der OsthessenNetz GmbH",
"description": "74604",
"field_project_localitiy": "Fulda",
"field_project_zip": 36043
}
},
{
"type": "Feature",
"geometry": {
"type": "Point",
"coordinates": [
8.404843,
48.9847498
]
},
"properties": {
"name": "Reduzierung von Treibhausgas-Emissionen und des Emissionspotenzials der Deponie Karlsruhe Ost",
"description": "74623",
"field_project_localitiy": "Karlsruhe",
"field_project_zip": 76133
}
},
{
"type": "Feature",
"geometry": {
"type": "Point",
"coordinates": [
6.9850265,
51.2286663
]
},
"properties": {
"name": "LED Außenbeleuchtung Parkplätze Kreis Mettmann",
"description": "74547",
"field_project_localitiy": "Mettmann",
"field_project_zip": 40822
}
},
{
"type": "Feature",
"geometry": {
"type": "Point",
"coordinates": [
7.9414875,
52.3138428
]
},
"properties": {
"name": "Leuchtenwechsel in der Gemeinde Lotte 2016",
"description": "74568",
"field_project_localitiy": "Lotte",
"field_project_zip": 49504
}
},
{
"type": "Feature",
"geometry": {
"type": "Point",
"coordinates": [
10.8491729,
50.717278
]
},
"properties": {
"name": "Sanierung Hallenbeleuchtung der Schulsport- und Mehrzweckhalle &quot;Geratalhalle&quot; in Geraberg",
"description": "74587",
"field_project_localitiy": "Geraberg",
"field_project_zip": 98716
}
},
{
"type": "Feature",
"geometry": {
"type": "Point",
"coordinates": [
8.8192095,
47.9603316
]
},
"properties": {
"name": "Umrüstung der Altbestandsleuchtanlage auf LED-Technik im Verwaltungsgebäude Waaghausstraße (Rathausnebengebäude)",
"description": "74548",
"field_project_localitiy": "Tuttlingen",
"field_project_zip": 78532
}
},
{
"type": "Feature",
"geometry": {
"type": "Point",
"coordinates": [
9.6487896,
47.9502469
]
},
"properties": {
"name": "CO2 Einsparung im Straßenbeleuchtungsbereich des Gemeindebezirks Aulendorf",
"description": "74569",
"field_project_localitiy": "Aulendorf",
"field_project_zip": 88326
}
},
{
"type": "Feature",
"geometry": {
"type": "Point",
"coordinates": [
7.8027194,
49.1134152
]
},
"properties": {
"name": "Sanierung der Lüftungsanlage in der KiTa St. Franziskus",
"description": "74549",
"field_project_localitiy": "Bruchweiler-Bärenbach",
"field_project_zip": 76891
}
},
{
"type": "Feature",
"geometry": {
"type": "Point",
"coordinates": [
10.8058829,
49.4934643
]
},
"properties": {
"name": "Sanierung der Straßenbeleuchtung in der Stadt Langenzenn",
"description": "74570",
"field_project_localitiy": "Langenzenn",
"field_project_zip": 90579
}
},
{
"type": "Feature",
"geometry": {
"type": "Point",
"coordinates": [
7.8137194,
49.1134152
]
},
"properties": {
"name": "Energetische Sanierungsmaßnahmen an der KiTa St. Franziskus in Bruchweiler-Bärenbach",
"description": "74550",
"field_project_localitiy": "Bruchweiler-Bärenbach",
"field_project_zip": 76891
}
},
{
"type": "Feature",
"geometry": {
"type": "Point",
"coordinates": [
8.0711839,
52.1910737
]
},
"properties": {
"name": "Einstiegsberatung kommunaler Klimaschutz Stadt Georgsmarienhütte",
"description": "74571",
"field_project_localitiy": "Georgsmarienhütte",
"field_project_zip": 49124
}
},
{
"type": "Feature",
"geometry": {
"type": "Point",
"coordinates": [
7.4370803,
52.7996609
]
},
"properties": {
"name": "Sanierung der Straßenbeleuchtung in Stavern auf LED-Technologie",
"description": "74552",
"field_project_localitiy": "Stavern",
"field_project_zip": 49777
}
},
{
"type": "Feature",
"geometry": {
"type": "Point",
"coordinates": [
7.3214007,
52.6733479
]
},
"properties": {
"name": "Umrüstung der Innenbeleuchtung auf LED-Technik im St. Vitus Werk in Meppen",
"description": "74572",
"field_project_localitiy": "Meppen",
"field_project_zip": 49716
}
},
{
"type": "Feature",
"geometry": {
"type": "Point",
"coordinates": [
9.5002,
48.0037205
]
},
"properties": {
"name": "Sanierung der Beleuchtungsanlage der Tiefgarage im Stadtforum Bad Saulgau",
"description": "74553",
"field_project_localitiy": "Bad Saulgau",
"field_project_zip": 88348
}
},
{
"type": "Feature",
"geometry": {
"type": "Point",
"coordinates": [
11.9690556,
50.3252304
]
},
"properties": {
"name": "Klimaschutz bei der LED-Aussen- und Straßenbeleuchtung",
"description": "74575",
"field_project_localitiy": "Hof",
"field_project_zip": 95028
}
},
{
"type": "Feature",
"geometry": {
"type": "Point",
"coordinates": [
10.3029567,
50.4279343
]
},
"properties": {
"name": "Gemeinde Oberstreu - Umrüstung der Straßenbeleuchtung auf LED in Mittelstreu",
"description": "74554",
"field_project_localitiy": "Mellrichstadt",
"field_project_zip": 97638
}
},
{
"type": "Feature",
"geometry": {
"type": "Point",
"coordinates": [
11.1131607,
49.2236337
]
},
"properties": {
"name": "Sanierung Innenbeleuchtung von Treppenhäusern, Fluren und Sitzungssaal mit Foyer, im Landratsamt Roth",
"description": "74576",
"field_project_localitiy": "Roth",
"field_project_zip": 91154
}
},
{
"type": "Feature",
"geometry": {
"type": "Point",
"coordinates": [
10.1151322,
52.613917
]
},
"properties": {
"name": "Einrichtung von Fahrradabstellanlagen in der Innenstadt von Celle",
"description": "74556",
"field_project_localitiy": "Celle",
"field_project_zip": 29221
}
},
{
"type": "Feature",
"geometry": {
"type": "Point",
"coordinates": [
11.7279987,
48.3948737
]
},
"properties": {
"name": "Sanierung der Innenbeleuchtung Betriebsgebäude Stadtentwässerung Freising",
"description": "74577",
"field_project_localitiy": "Freising",
"field_project_zip": 85354
}
},
{
"type": "Feature",
"geometry": {
"type": "Point",
"coordinates": [
11.1021607,
49.2236337
]
},
"properties": {
"name": "Sanierung der Außenbeleuchtung am Landratsamt Roth",
"description": "74559",
"field_project_localitiy": "Roth",
"field_project_zip": 91154
}
},
{
"type": "Feature",
"geometry": {
"type": "Point",
"coordinates": [
11.0835064,
48.0707346
]
},
"properties": {
"name": "LED-Flutlichtanlage Sportplatz Greifenberg",
"description": "74578",
"field_project_localitiy": "Greifenberg",
"field_project_zip": 86926
}
},
{
"type": "Feature",
"geometry": {
"type": "Point",
"coordinates": [
7.9419146,
48.4785097
]
},
"properties": {
"name": "Ersatz von veralteter Beleuchtungstechnik durch moderne LED-Beleuchtung im Ritterhausmuseum Offenburg",
"description": "74538",
"field_project_localitiy": "Offenburg",
"field_project_zip": 77652
}
},
{
"type": "Feature",
"geometry": {
"type": "Point",
"coordinates": [
10.2690311,
51.7073769
]
},
"properties": {
"name": "Nachrüstung dezentraler RLT-Geräte mit Wärmerückgewinnung Gymnasium Osterode am Harz",
"description": "74560",
"field_project_localitiy": "Osterode am Harz",
"field_project_zip": 37520
}
},
{
"type": "Feature",
"geometry": {
"type": "Point",
"coordinates": [
13.445094,
48.5102389
]
},
"properties": {
"name": "Sanierung der Innenbleuchtung des Zweckverband Wasserversorgung Unteres Inntal",
"description": "74579",
"field_project_localitiy": "Neuburg a.Inn",
"field_project_zip": 94127
}
},
{
"type": "Feature",
"geometry": {
"type": "Point",
"coordinates": [
8.9355824,
48.8465917
]
},
"properties": {
"name": "Sanierung und Umgestaltung der Ortsdurchfahrt Flacht Anpassung der Straßenbeleuchtung",
"description": "74539",
"field_project_localitiy": "Weissach",
"field_project_zip": 71287
}
},
{
"type": "Feature",
"geometry": {
"type": "Point",
"coordinates": [
8.1168586,
49.171521
]
},
"properties": {
"name": "Klimaschutztechnologien bei der Stromnutzung der Stadt Landau für den Bereich Straßenbeleuchtung 2016/1",
"description": "74561",
"field_project_localitiy": "Landau",
"field_project_zip": 76829
}
},
{
"type": "Feature",
"geometry": {
"type": "Point",
"coordinates": [
8.6730434,
48.8286537
]
},
"properties": {
"name": "Umrüstung der Straßenbeleuchtung in den drei Ortsteilen der Gemeinde Engelsbrand von HQL auf LED",
"description": "74580",
"field_project_localitiy": "Engelsbrand",
"field_project_zip": 75331
}
},
{
"type": "Feature",
"geometry": {
"type": "Point",
"coordinates": [
10.3545038,
52.1480409
]
},
"properties": {
"name": "Umrüstung des Innenstadtbereichs der Stadt Salzgitter auf moderne LED Leuchten",
"description": "74540",
"field_project_localitiy": "Salzgitter",
"field_project_zip": 38226
}
},
{
"type": "Feature",
"geometry": {
"type": "Point",
"coordinates": [
10.8926107,
49.8698432
]
},
"properties": {
"name": "Sanierung der Parkplatzbeleuchtung der Graf-Stauffenberg Wirtschafts- und Realschule und Umrüstung der Straßenbeleuchtung in der Sammelstraße Regensburger Ring",
"description": "74562",
"field_project_localitiy": "Bamberg",
"field_project_zip": 96047
}
},
{
"type": "Feature",
"geometry": {
"type": "Point",
"coordinates": [
11.1483427,
51.1613676
]
},
"properties": {
"name": "Umrüstung alte Klassenraumbeleuchtung auf LED in der RS Weißensee, der GS Kölleda und dem Gymnasium Sömmerda, Außenstelle Fichtestraße",
"description": "74581",
"field_project_localitiy": "Sömmerda",
"field_project_zip": 99610
}
},
{
"type": "Feature",
"geometry": {
"type": "Point",
"coordinates": [
6.655381,
49.7275739
]
},
"properties": {
"name": "Berufsbildende Schule 54411 Hermeskeil Erneuerung der Beleuchtung",
"description": "74542",
"field_project_localitiy": "Trier",
"field_project_zip": 54290
}
},
{
"type": "Feature",
"geometry": {
"type": "Point",
"coordinates": [
8.4012858,
51.922695
]
},
"properties": {
"name": "Sanierung der Außenbeleuchtungsanlagen am Ems- und Reckenberg Berufskolleg in Rheda-Wiedenbrück",
"description": "74564",
"field_project_localitiy": "Gütersloh",
"field_project_zip": 33334
}
},
{
"type": "Feature",
"geometry": {
"type": "Point",
"coordinates": [
11.8146005,
52.2170288
]
},
"properties": {
"name": "Erneuerung der Strassenbeleuchtung in Friedensau",
"description": "74582",
"field_project_localitiy": "Friedensau",
"field_project_zip": 39291
}
},
{
"type": "Feature",
"geometry": {
"type": "Point",
"coordinates": [
8.8276775,
50.518161
]
},
"properties": {
"name": "Sanierung der Lüftungsanlage und Beckenumwälzpumpen Hallenbad Lich",
"description": "74543",
"field_project_localitiy": "Lich",
"field_project_zip": 35423
}
},
{
"type": "Feature",
"geometry": {
"type": "Point",
"coordinates": [
9.141144,
49.0157741
]
},
"properties": {
"name": "Erneuerung der Innenbeleuchtung Grundschule Walheim",
"description": "74565",
"field_project_localitiy": "Walheim",
"field_project_zip": 74399
}
},
{
"type": "Feature",
"geometry": {
"type": "Point",
"coordinates": [
12.464108,
51.4615884
]
},
"properties": {
"name": "Einbau LED-Straßenbeleuchtung im Gewerbegebiet Krostitz, Hilchenbacher Straße",
"description": "74583",
"field_project_localitiy": "Krostitz",
"field_project_zip": 4509
}
},
{
"type": "Feature",
"geometry": {
"type": "Point",
"coordinates": [
6.7392247,
51.4399036
]
},
"properties": {
"name": "Klimaschutz durch Einbau von LED-Beleuchtung im Bereich der Innen- und Hallenbeleuchtung in WBD-Gebäuden",
"description": "74545",
"field_project_localitiy": "Duisburg",
"field_project_zip": 47059
}
},
{
"type": "Feature",
"geometry": {
"type": "Point",
"coordinates": [
8.2796627,
47.6101272
]
},
"properties": {
"name": "Umstellung der Innenbeleuchtung auf LED Kaufm. Verwaltung + Technisches Betriebsgebäude",
"description": "74566",
"field_project_localitiy": "Waldshut-Tiengen",
"field_project_zip": 79761
}
},
{
"type": "Feature",
"geometry": {
"type": "Point",
"coordinates": [
8.583487,
49.969722
]
},
"properties": {
"name": "Sanierung der Saalbeleuchtung auf LED, Stadthalle Mörfelden-Walldorf",
"description": "74585",
"field_project_localitiy": "Mörfelden-Walldorf",
"field_project_zip": 64546
}
},
{
"type": "Feature",
"geometry": {
"type": "Point",
"coordinates": [
6.9740265,
51.2286663
]
},
"properties": {
"name": "Sanierung der Innenbeleuchtung im Wohnheim für Behinderte im Kreis Mettmann",
"description": "74546",
"field_project_localitiy": "Mettmann",
"field_project_zip": 40822
}
},
{
"type": "Feature",
"geometry": {
"type": "Point",
"coordinates": [
8.9846431,
48.390832
]
},
"properties": {
"name": "Einstiegsberatung für den kommunalen Klimaschutz für Bodelshausen",
"description": "74567",
"field_project_localitiy": "Bodelshausen",
"field_project_zip": 72411
}
},
{
"type": "Feature",
"geometry": {
"type": "Point",
"coordinates": [
10.5145813,
52.4811666
]
},
"properties": {
"name": "Einbau von hocheffizienten LED-Leuchten in der Sporthalle des Sibylla-Merian-Gymnasiums in Meinersen",
"description": "74586",
"field_project_localitiy": "Gifhorn",
"field_project_zip": 38518
}
},
{
"type": "Feature",
"geometry": {
"type": "Point",
"coordinates": [
11.3310482,
50.2359898
]
},
"properties": {
"name": "Sanierung des Obergeschosses des ehemaligen Bezirksamtes Kronach mit hocheffizienter LED-Technik",
"description": "74508",
"field_project_localitiy": "Kronach",
"field_project_zip": 96317
}
},
{
"type": "Feature",
"geometry": {
"type": "Point",
"coordinates": [
12.2608019,
51.8485265
]
},
"properties": {
"name": "Sanierung der Innenbeleuchtung mittels LED-Technik in der Elbe-Rossel-Mehrzweckhalle in der Stadt Dessau-Roßlau",
"description": "74528",
"field_project_localitiy": "Dessau-Roßlau",
"field_project_zip": 6844
}
},
{
"type": "Feature",
"geometry": {
"type": "Point",
"coordinates": [
7.9664831,
52.5298203
]
},
"properties": {
"name": "Sanierung der Innenbeleuchtung in der August-Bennighaus-Schule (Oberschule) in Ankum.",
"description": "74491",
"field_project_localitiy": "Bersenbrück",
"field_project_zip": 49593
}
},
{
"type": "Feature",
"geometry": {
"type": "Point",
"coordinates": [
8.8267981,
49.9779267
]
},
"properties": {
"name": "Verbesserung der Fahrradabstellsituation in Rödermark",
"description": "74510",
"field_project_localitiy": "Rödermark",
"field_project_zip": 63322
}
},
{
"type": "Feature",
"geometry": {
"type": "Point",
"coordinates": [
7.6128867,
52.3710554
]
},
"properties": {
"name": "Sanierung der Innenbeleuchtung in der Hauptschule der Gemeinde Hopsten",
"description": "74529",
"field_project_localitiy": "Hopsten",
"field_project_zip": 48496
}
},
{
"type": "Feature",
"geometry": {
"type": "Point",
"coordinates": [
9.9105987,
52.6779266
]
},
"properties": {
"name": "Kindergarten Hinteres Sandfeld, Winsen (Aller)",
"description": "74492",
"field_project_localitiy": "Winsen (Aller)",
"field_project_zip": 29308
}
},
{
"type": "Feature",
"geometry": {
"type": "Point",
"coordinates": [
6.2347174,
50.7692791
]
},
"properties": {
"name": "Sanierung von RLT-Geräten im Jugendheim Münsterbusch in der Kupferstadt Stolberg",
"description": "74512",
"field_project_localitiy": "Stolberg",
"field_project_zip": 52222
}
},
{
"type": "Feature",
"geometry": {
"type": "Point",
"coordinates": [
7.6238867,
52.3710554
]
},
"properties": {
"name": "Sanierung der Innen- und Hallenbeleuchtung der 3-fach Sporthalle der Gemeinde Hopsten",
"description": "74530",
"field_project_localitiy": "Hopsten",
"field_project_zip": 48496
}
},
{
"type": "Feature",
"geometry": {
"type": "Point",
"coordinates": [
9.6612347,
48.2708997
]
},
"properties": {
"name": "Errichtung von acht Fahrradschutzstreifen in Ehingen (Donau) und Radabstellanlagen an der Realschule und am städtischen Freibad im Zuge der Umsetzung der Maßnahmen aus dem Radwegekonzept in Ehingen (Donau)",
"description": "74493",
"field_project_localitiy": "Ehingen",
"field_project_zip": 89584
}
},
{
"type": "Feature",
"geometry": {
"type": "Point",
"coordinates": [
8.1349014,
48.3778512
]
},
"properties": {
"name": "Sanierung der Straßenbeleuchtung im Jahr 2016 in Oberharmersbach",
"description": "74494",
"field_project_localitiy": "Oberharmersbach",
"field_project_zip": 77784
}
},
{
"type": "Feature",
"geometry": {
"type": "Point",
"coordinates": [
9.9325987,
52.6779266
]
},
"properties": {
"name": "Rathaus Winsen (Aller) Sanierung der Innenbeleuchtung",
"description": "74513",
"field_project_localitiy": "Winsen (Aller)",
"field_project_zip": 29308
}
},
{
"type": "Feature",
"geometry": {
"type": "Point",
"coordinates": [
6.9960265,
51.2396663
]
},
"properties": {
"name": "Sanierung der Innenbeleuchtung der Klassen in der Schule für geistig und körperlich Behinderte am Thekbusch in Velbert",
"description": "74531",
"field_project_localitiy": "Mettmann",
"field_project_zip": 40822
}
},
{
"type": "Feature",
"geometry": {
"type": "Point",
"coordinates": [
9.0222027,
49.0031635
]
},
"properties": {
"name": "Umrüstung der Straßenbeleuchtung im Stadtgebiet auf LED",
"description": "74495",
"field_project_localitiy": "Sachsenheim",
"field_project_zip": 74343
}
},
{
"type": "Feature",
"geometry": {
"type": "Point",
"coordinates": [
8.7279231,
50.0294877
]
},
"properties": {
"name": "Fahrradstraße zwischen dem Bahnhof Buchschlag und dem Stadtzentrum (Sprendlingen)",
"description": "74514",
"field_project_localitiy": "Dreieich",
"field_project_zip": 63303
}
},
{
"type": "Feature",
"geometry": {
"type": "Point",
"coordinates": [
6.684859,
50.8530284
]
},
"properties": {
"name": "Sanierung der Strassenbeleuchtung in Kerpen Buir",
"description": "74532",
"field_project_localitiy": "Kerpen",
"field_project_zip": 50171
}
},
{
"type": "Feature",
"geometry": {
"type": "Point",
"coordinates": [
12.7914527,
48.7275085
]
},
"properties": {
"name": "Sanierung der Innenbeleuchtung der Hauptschule Wallersdorf",
"description": "74496",
"field_project_localitiy": "Wallersdorf",
"field_project_zip": 94522
}
},
{
"type": "Feature",
"geometry": {
"type": "Point",
"coordinates": [
8.8113092,
49.3535343
]
},
"properties": {
"name": "Sanierung der Außenbeleuchtung im Schul- und Sportzentrum Bammental",
"description": "74515",
"field_project_localitiy": "Bammental",
"field_project_zip": 69245
}
},
{
"type": "Feature",
"geometry": {
"type": "Point",
"coordinates": [
7.0070265,
51.2506663
]
},
"properties": {
"name": "Sanierung der Innenbeleuchtung der Klassen in der Schule an der Virneburg in Langenfeld",
"description": "74533",
"field_project_localitiy": "Mettmann",
"field_project_zip": 40822
}
},
{
"type": "Feature",
"geometry": {
"type": "Point",
"coordinates": [
6.65654,
50.4283649
]
},
"properties": {
"name": "Sanierung der Flutlichtanlage Sportanlage Ripsdorf durch LED-Beleuchtungstechnik",
"description": "74497",
"field_project_localitiy": "Blankenheim",
"field_project_zip": 53945
}
},
{
"type": "Feature",
"geometry": {
"type": "Point",
"coordinates": [
11.3420482,
50.2359898
]
},
"properties": {
"name": "Sanierung des Erdgeschosses des ehemaligen Bezirksamtes Kronach mit hocheffizienter LED-Technik",
"description": "74516",
"field_project_localitiy": "Kronach",
"field_project_zip": 96317
}
},
{
"type": "Feature",
"geometry": {
"type": "Point",
"coordinates": [
11.5651524,
47.7394737
]
},
"properties": {
"name": "Sanierung der Hallenbeleuchtung der Turnhalle Flinthöhe",
"description": "74534",
"field_project_localitiy": "Bad Tölz",
"field_project_zip": 83646
}
},
{
"type": "Feature",
"geometry": {
"type": "Point",
"coordinates": [
7.6329704,
50.3752264
]
},
"properties": {
"name": "Modernisierung der Innen- und Hallenbeleuchtung der Grundschule und Turnhalle Vallendar",
"description": "74498",
"field_project_localitiy": "Vallendar",
"field_project_zip": 56179
}
},
{
"type": "Feature",
"geometry": {
"type": "Point",
"coordinates": [
9.3081095,
48.7164056
]
},
"properties": {
"name": "Sanierung der Innenbeleuchtung im Verwaltungsbereich des Berufsschulzentrum Zells in Esslingen",
"description": "74517",
"field_project_localitiy": "Esslingen",
"field_project_zip": 73728
}
},
{
"type": "Feature",
"geometry": {
"type": "Point",
"coordinates": [
8.4342858,
51.922695
]
},
"properties": {
"name": "energetische Sanierung der Innenbeleuchtung in mehreren Klassenräumen des Kreisgymnasiums in Halle (Westf.)",
"description": "74536",
"field_project_localitiy": "Gütersloh",
"field_project_zip": 33334
}
},
{
"type": "Feature",
"geometry": {
"type": "Point",
"coordinates": [
8.9307318,
49.30042
]
},
"properties": {
"name": "Ausbau des Radwegenetzes in Waibstadt durch die Ergänzung der Verbindung Sinsheim, Daisbach, Waibstadt und Epfenbach in drei Bereichen",
"description": "74499",
"field_project_localitiy": "Waibstadt",
"field_project_zip": 74915
}
},
{
"type": "Feature",
"geometry": {
"type": "Point",
"coordinates": [
8.3415457,
50.6532309
]
},
"properties": {
"name": "Umrüstung der Straßenbeleuchtung auf LED in Sinn-Mitte",
"description": "74518",
"field_project_localitiy": "Sinn",
"field_project_zip": 35764
}
},
{
"type": "Feature",
"geometry": {
"type": "Point",
"coordinates": [
8.3917349,
51.887671
]
},
"properties": {
"name": "Sanierung der Außenbeleuchtung des Schulzentrums Ost in Gütersloh",
"description": "74537",
"field_project_localitiy": "Gütersloh",
"field_project_zip": 33330
}
},
{
"type": "Feature",
"geometry": {
"type": "Point",
"coordinates": [
8.116754,
51.5491476
]
},
"properties": {
"name": "Ausarbeitung einer Potenzialstudie - Reduzierung von Treibhausgas-Emissionen und des Emissionspotenzials der Deponie Werl unter Anwendung des inspiro-Verfahrens",
"description": "74501",
"field_project_localitiy": "Soest",
"field_project_zip": 59494
}
},
{
"type": "Feature",
"geometry": {
"type": "Point",
"coordinates": [
10.0432206,
48.3515527
]
},
"properties": {
"name": "Sanierung der Innenbeleuchtung auf LED in der Christoph-Probst-Realschule Neu-Ulm",
"description": "74519",
"field_project_localitiy": "Neu-Ulm",
"field_project_zip": 89231
}
},
{
"type": "Feature",
"geometry": {
"type": "Point",
"coordinates": [
8.679821,
48.1634481
]
},
"properties": {
"name": "Ausarbeitung einer Potenzialstudie zur Reduzierung von Treibhausgas-Emissionen der Deponie Bochingen",
"description": "74502",
"field_project_localitiy": "Rottweil",
"field_project_zip": 78628
}
},
{
"type": "Feature",
"geometry": {
"type": "Point",
"coordinates": [
7.3352187,
50.3015713
]
},
"properties": {
"name": "Sanierung der Hallenbeleuchtung der Nettetalhalle in der Ortsgemeinde Welling",
"description": "74520",
"field_project_localitiy": "Polch",
"field_project_zip": 56751
}
},
{
"type": "Feature",
"geometry": {
"type": "Point",
"coordinates": [
8.646821,
48.1524481
]
},
"properties": {
"name": "Ausarbeitung einer Potenzialstudie zur Reduzierung von Treibhausgas-Emissionen und des Emissionspotenzials der Deponie Keltenberg",
"description": "74503",
"field_project_localitiy": "Rottweil",
"field_project_zip": 78628
}
},
{
"type": "Feature",
"geometry": {
"type": "Point",
"coordinates": [
7.7905479,
49.4903508
]
},
"properties": {
"name": "Sanierung der Hallenbeleuchtung der Sporthalle E der IGS Bettina von Arnim in Otterberg",
"description": "74521",
"field_project_localitiy": "Otterberg",
"field_project_zip": 67697
}
},
{
"type": "Feature",
"geometry": {
"type": "Point",
"coordinates": [
7.586913,
52.5640888
]
},
"properties": {
"name": "Sanierung Schwimmhalle Lengerich - Innen- bzw. Hallenbeleuchtung",
"description": "74504",
"field_project_localitiy": "Lengerich",
"field_project_zip": 49838
}
},
{
"type": "Feature",
"geometry": {
"type": "Point",
"coordinates": [
8.2601375,
49.8896748
]
},
"properties": {
"name": "Energetische Sanierung der Hallenbeleuchtung der Sporthalle Essenheim",
"description": "74523",
"field_project_localitiy": "Essenheim",
"field_project_zip": 55270
}
},
{
"type": "Feature",
"geometry": {
"type": "Point",
"coordinates": [
9.9215987,
52.6779266
]
},
"properties": {
"name": "Kindergarten Allerstraße, Winsen (Aller)",
"description": "74505",
"field_project_localitiy": "Winsen (Aller)",
"field_project_zip": 29308
}
},
{
"type": "Feature",
"geometry": {
"type": "Point",
"coordinates": [
10.5700538,
50.8586237
]
},
"properties": {
"name": "Innenbeleuchtung Marienglashöhle Friedrichroda",
"description": "74525",
"field_project_localitiy": "Friedrichroda",
"field_project_zip": 99894
}
},
{
"type": "Feature",
"geometry": {
"type": "Point",
"coordinates": [
7.2031755,
50.1254123
]
},
"properties": {
"name": "Sanierung der Innenbeleuchtung in der Grund- und Realschule plus in Treis-Karden",
"description": "74506",
"field_project_localitiy": "Cochem",
"field_project_zip": 56812
}
},
{
"type": "Feature",
"geometry": {
"type": "Point",
"coordinates": [
7.6018867,
52.3710554
]
},
"properties": {
"name": "Sanierung der Innenbeleuchtung in der Grundschule der Gemeinde Hopsten",
"description": "74526",
"field_project_localitiy": "Hopsten",
"field_project_zip": 48496
}
},
{
"type": "Feature",
"geometry": {
"type": "Point",
"coordinates": [
12.7694527,
48.7275085
]
},
"properties": {
"name": "Sanierung der Innenbeleuchtung der Grundschule 1 Wallersdorf",
"description": "74489",
"field_project_localitiy": "Wallersdorf",
"field_project_zip": 94522
}
},
{
"type": "Feature",
"geometry": {
"type": "Point",
"coordinates": [
12.0039306,
50.0179087
]
},
"properties": {
"name": "Umrüstung der Beleuchtung im Sitzungsaal, Konferenzraum, Kantinen- und Sozialbereich der Stadtwerke Wunsiedel",
"description": "74507",
"field_project_localitiy": "Wunsiedel",
"field_project_zip": 95632
}
},
{
"type": "Feature",
"geometry": {
"type": "Point",
"coordinates": [
8.2169096,
48.8481174
]
},
"properties": {
"name": "Austausch von Leuchtstofflampen gegen LED Leuchten in der Astrid-Lindgren-Schule in Iffezheim Landkreis Rastatt",
"description": "74527",
"field_project_localitiy": "Rastatt",
"field_project_zip": 76437
}
},
{
"type": "Feature",
"geometry": {
"type": "Point",
"coordinates": [
12.7804527,
48.7275085
]
},
"properties": {
"name": "Sanierung der Innenbeleuchtung der Grundschule 2 Wallersdorf",
"description": "74490",
"field_project_localitiy": "Wallersdorf",
"field_project_zip": 94522
}
},
{
"type": "Feature",
"geometry": {
"type": "Point",
"coordinates": [
12.3634475,
51.3273504
]
},
"properties": {
"name": "Austausch von Halogen- durch LED-Beleuchtung im Stadtgeschichtlichen Museum Leipzig, Nordflügel Altes Rathaus Leipzig, 1.OG",
"description": "74452",
"field_project_localitiy": "Leipzig",
"field_project_zip": 4109
}
},
{
"type": "Feature",
"geometry": {
"type": "Point",
"coordinates": [
9.5965879,
48.9137654
]
},
"properties": {
"name": "Installation von LED Leuchtmitteln in der Sporthalle der Gemeinde Althütte",
"description": "74473",
"field_project_localitiy": "Althütte",
"field_project_zip": 71566
}
},
{
"type": "Feature",
"geometry": {
"type": "Point",
"coordinates": [
9.2707339,
49.2925539
]
},
"properties": {
"name": "Einstiegsberatung kommunaler Klimaschutz Neudenau und Jagsthausen",
"description": "74453",
"field_project_localitiy": "Neudenau",
"field_project_zip": 74861
}
},
{
"type": "Feature",
"geometry": {
"type": "Point",
"coordinates": [
13.1939237,
48.6160454
]
},
"properties": {
"name": "Sanierung der Außen- und Straßenbeleuchtung der Stadt Vilshofen an der Donau",
"description": "74474",
"field_project_localitiy": "Vilshofen an der Donau",
"field_project_zip": 94474
}
},
{
"type": "Feature",
"geometry": {
"type": "Point",
"coordinates": [
10.9256107,
49.8698432
]
},
"properties": {
"name": "Sanierung der Hallenbeleuchtung der Turnhalle der Graf-Stauffenberg Wirtschafts- und Realschule in Bamberg",
"description": "74455",
"field_project_localitiy": "Bamberg",
"field_project_zip": 96047
}
},
{
"type": "Feature",
"geometry": {
"type": "Point",
"coordinates": [
9.6551766,
48.7308906
]
},
"properties": {
"name": "Umrüstung der Straßenbeleuchtung auf LED in der Gemeinde Rechberghausen",
"description": "74475",
"field_project_localitiy": "Rechberghausen",
"field_project_zip": 73098
}
},
{
"type": "Feature",
"geometry": {
"type": "Point",
"coordinates": [
9.9325987,
52.6889266
]
},
"properties": {
"name": "Bauhof Winsen (Aller)",
"description": "74438",
"field_project_localitiy": "Winsen (Aller)",
"field_project_zip": 29308
}
},
{
"type": "Feature",
"geometry": {
"type": "Point",
"coordinates": [
7.3943429,
51.3001092
]
},
"properties": {
"name": "Sanierung von Klassenraumbeleuchtungen im Reichenbach-Gymnasium Ennepetal mittels LED-Technik",
"description": "74456",
"field_project_localitiy": "Ennepetal",
"field_project_zip": 58256
}
},
{
"type": "Feature",
"geometry": {
"type": "Point",
"coordinates": [
11.1641379,
47.8296859
]
},
"properties": {
"name": "Einbau hocheffizienter LED-Beleuchtung in Verbindung mit einer nutzungsgerechten Steuer- und Regelungstechnik bei der Sanierung der Innenbeleuchtung der Stadtbücherei Weilheim",
"description": "74476",
"field_project_localitiy": "Weilheim",
"field_project_zip": 82362
}
},
{
"type": "Feature",
"geometry": {
"type": "Point",
"coordinates": [
10.9036107,
49.8698432
]
},
"properties": {
"name": "Sanierung der Hallenbeleuchtung der Turnhalle der Wunderburgschule in Bamberg",
"description": "74439",
"field_project_localitiy": "Bamberg",
"field_project_zip": 96047
}
},
{
"type": "Feature",
"geometry": {
"type": "Point",
"coordinates": [
10.3138617,
47.5161161
]
},
"properties": {
"name": "Umrüstung Straßenbeleuchtung HQL auf LED im Stadtgebiet Sonthofen",
"description": "74458",
"field_project_localitiy": "Sonthofen",
"field_project_zip": 87527
}
},
{
"type": "Feature",
"geometry": {
"type": "Point",
"coordinates": [
8.8325372,
51.9944229
]
},
"properties": {
"name": "Energetische Sanierung- Sanierung der Innenbeleuchtung in der Hauptschule Maßbruch - zweiter Bauabschnitt",
"description": "74477",
"field_project_localitiy": "Lage",
"field_project_zip": 32791
}
},
{
"type": "Feature",
"geometry": {
"type": "Point",
"coordinates": [
6.9316299,
50.3825077
]
},
"properties": {
"name": "Energetische Sanierung der Straßenbeleuchtung in der Stadt Adenau",
"description": "74440",
"field_project_localitiy": "Adenau",
"field_project_zip": 53518
}
},
{
"type": "Feature",
"geometry": {
"type": "Point",
"coordinates": [
8.0495294,
52.2195583
]
},
"properties": {
"name": "Energetische Sanierung der Innenbeleuchtung im Werkstattgebäude in der Berufsschule Bersenbrück",
"description": "74459",
"field_project_localitiy": "Osnabrück",
"field_project_zip": 49082
}
},
{
"type": "Feature",
"geometry": {
"type": "Point",
"coordinates": [
8.3513114,
52.1942401
]
},
"properties": {
"name": "Sanierung der Innenbeleuchtung in der Oberschule Neuenkirchen",
"description": "74478",
"field_project_localitiy": "Melle",
"field_project_zip": 49324
}
},
{
"type": "Feature",
"geometry": {
"type": "Point",
"coordinates": [
9.1596795,
47.6807013
]
},
"properties": {
"name": "Sanierung der Innenbeleuchtung mittels LED-Technik in der Zeppelin-Gewerbeschule Konstanz",
"description": "74442",
"field_project_localitiy": "Konstanz",
"field_project_zip": 78467
}
},
{
"type": "Feature",
"geometry": {
"type": "Point",
"coordinates": [
8.0605294,
52.2195583
]
},
"properties": {
"name": "Energetische Sanierung der Lüftungsanlage in der Telefonzentrale und im Archiv im Kreishaus Osnabrück",
"description": "74460",
"field_project_localitiy": "Osnabrück",
"field_project_zip": 49082
}
},
{
"type": "Feature",
"geometry": {
"type": "Point",
"coordinates": [
9.2617893,
48.8656534
]
},
"properties": {
"name": "Umfassendes Klimaschutzteilkonzept &quot;Mobilität&quot; für die Stadt Remseck am Neckar",
"description": "74479",
"field_project_localitiy": "Remseck",
"field_project_zip": 71686
}
},
{
"type": "Feature",
"geometry": {
"type": "Point",
"coordinates": [
11.0331188,
50.8772357
]
},
"properties": {
"name": "Sanierung Straßenbeleuchtung auf LED Technik in der Gemeinde Amt Wachsenburg Teil 2",
"description": "74443",
"field_project_localitiy": "Amt Wachsenburg",
"field_project_zip": 99334
}
},
{
"type": "Feature",
"geometry": {
"type": "Point",
"coordinates": [
13.798441,
52.8239072
]
},
"properties": {
"name": "Sanierung der Hallenbeleuchtung technisch genutzter Gebäude auf dem Waldcampus der Hochschule für nachhaltige Entwicklung Eberswalde",
"description": "74461",
"field_project_localitiy": "Eberswalde",
"field_project_zip": 16225
}
},
{
"type": "Feature",
"geometry": {
"type": "Point",
"coordinates": [
12.7584527,
48.7275085
]
},
"properties": {
"name": "Sanierung der Hallenbeleuchtung der Helmut-Wimmer-Halle in Wallersdorf",
"description": "74480",
"field_project_localitiy": "Wallersdorf",
"field_project_zip": 94522
}
},
{
"type": "Feature",
"geometry": {
"type": "Point",
"coordinates": [
9.9435987,
52.6889266
]
},
"properties": {
"name": "Turnhalle, Winsen (Aller)",
"description": "74444",
"field_project_localitiy": "Winsen (Aller)",
"field_project_zip": 29308
}
},
{
"type": "Feature",
"geometry": {
"type": "Point",
"coordinates": [
10.2525055,
50.4608058
]
},
"properties": {
"name": "Umstellung Straßenbeleuchtung Gemeinde Sondheim v.d.Rhön",
"description": "74463",
"field_project_localitiy": "Ostheim",
"field_project_zip": 97645
}
},
{
"type": "Feature",
"geometry": {
"type": "Point",
"coordinates": [
7.1854118,
50.9966653
]
},
"properties": {
"name": "Sanierung der Sporthallenbeleuchtung in der Integrierten Gesamtschule Bergisch Gladbach Paffrath (abgekürzt IGP).",
"description": "74481",
"field_project_localitiy": "Bergisch Gladbach",
"field_project_zip": 51465
}
},
{
"type": "Feature",
"geometry": {
"type": "Point",
"coordinates": [
10.9146107,
49.8698432
]
},
"properties": {
"name": "Sanierung der Hallenbeleuchtung der Turnhalle der Gangolfschule in Bamberg",
"description": "74445",
"field_project_localitiy": "Bamberg",
"field_project_zip": 96047
}
},
{
"type": "Feature",
"geometry": {
"type": "Point",
"coordinates": [
8.8003092,
49.3535343
]
},
"properties": {
"name": "Sanierung der Innenbeleuchtung im Regenbogenkindergarten und Einbau einer Verschattungsvorrichtung im Kindergarten &quot;Kleine Helden&quot; in Bammental",
"description": "74464",
"field_project_localitiy": "Bammental",
"field_project_zip": 69245
}
},
{
"type": "Feature",
"geometry": {
"type": "Point",
"coordinates": [
8.3623114,
52.1942401
]
},
"properties": {
"name": "Grundschule Riemsloh der Stadt Melle im Landkreis Osnabrück",
"description": "74482",
"field_project_localitiy": "Melle",
"field_project_zip": 49324
}
},
{
"type": "Feature",
"geometry": {
"type": "Point",
"coordinates": [
10.9256107,
49.8698432
]
},
"properties": {
"name": "Sanierung der Hallenbeleuchtung der Turnhalle der Erlöserschule in Bamberg",
"description": "74446",
"field_project_localitiy": "Bamberg",
"field_project_zip": 96047
}
},
{
"type": "Feature",
"geometry": {
"type": "Point",
"coordinates": [
7.7704309,
51.501482
]
},
"properties": {
"name": "Energetische Sanierung der Straßenbeleuchtung in Fröndenberg/Ruhr",
"description": "74466",
"field_project_localitiy": "Fröndenberg",
"field_project_zip": 58730
}
},
{
"type": "Feature",
"geometry": {
"type": "Point",
"coordinates": [
9.0112027,
49.0031635
]
},
"properties": {
"name": "Umrüstung der Straßenbeleuchtung im Stadtgebiet auf LED Teil 2",
"description": "74483",
"field_project_localitiy": "Sachsenheim",
"field_project_zip": 74343
}
},
{
"type": "Feature",
"geometry": {
"type": "Point",
"coordinates": [
10.8926107,
49.8698432
]
},
"properties": {
"name": "Sanierung der Hallenbeleuchtung der Turnhalle der Kunigundenschule in Bamberg",
"description": "74447",
"field_project_localitiy": "Bamberg",
"field_project_zip": 96047
}
},
{
"type": "Feature",
"geometry": {
"type": "Point",
"coordinates": [
11.99102,
48.3795078
]
},
"properties": {
"name": "Sanierung der Belüftungsanlagen der Strogenhalle",
"description": "74467",
"field_project_localitiy": "Wartenberg",
"field_project_zip": 85456
}
},
{
"type": "Feature",
"geometry": {
"type": "Point",
"coordinates": [
9.3595292,
47.7250136
]
},
"properties": {
"name": "Sanierung der Außenbeleuchtung mittels LED-Technik in der Gemeinde Bermatingen",
"description": "74484",
"field_project_localitiy": "Bermatingen",
"field_project_zip": 88697
}
},
{
"type": "Feature",
"geometry": {
"type": "Point",
"coordinates": [
10.835163,
49.9336649
]
},
"properties": {
"name": "Umrüstung der Beleuchtung im Gemeindesaal der Gemeinde Oberhaid",
"description": "74448",
"field_project_localitiy": "Oberhaid",
"field_project_zip": 96173
}
},
{
"type": "Feature",
"geometry": {
"type": "Point",
"coordinates": [
10.2635055,
50.4608058
]
},
"properties": {
"name": "Umstellung Straßenbeleuchtung Stadt Ostheim v.d.Rhön",
"description": "74468",
"field_project_localitiy": "Ostheim v.d.Rhön",
"field_project_zip": 97645
}
},
{
"type": "Feature",
"geometry": {
"type": "Point",
"coordinates": [
6.7896165,
51.6411199
]
},
"properties": {
"name": "Sanierung der Beleuchtungsanlage des Rathauses der Gemeinde Hünxe (LED-Beleuchtung)",
"description": "74485",
"field_project_localitiy": "Hünxe",
"field_project_zip": 46569
}
},
{
"type": "Feature",
"geometry": {
"type": "Point",
"coordinates": [
10.9036107,
49.8698432
]
},
"properties": {
"name": "Sanierung der Hallenbeleuchtung der Turnhalle der Heidelsteigschule in Bamberg",
"description": "74449",
"field_project_localitiy": "Bamberg",
"field_project_zip": 96047
}
},
{
"type": "Feature",
"geometry": {
"type": "Point",
"coordinates": [
6.7837077,
51.2000859
]
},
"properties": {
"name": "Umrüstung der Gelände- und Straßenbeleuchtung auf LED-Technik - 3.BA",
"description": "74469",
"field_project_localitiy": "Düsseldorf",
"field_project_zip": 40213
}
},
{
"type": "Feature",
"geometry": {
"type": "Point",
"coordinates": [
13.8321542,
51.1831331
]
},
"properties": {
"name": "Erneuerung der öffentl. Beleuchtung durch LED in der Gemeinde Ottendorf-Okrilla",
"description": "74486",
"field_project_localitiy": "Ottendorf-Okrilla",
"field_project_zip": 1458
}
},
{
"type": "Feature",
"geometry": {
"type": "Point",
"coordinates": [
10.9146107,
49.8698432
]
},
"properties": {
"name": "Sanierung der Hallenbeleuchtung der Turnhalle des Eichendorff Gymnasiums in Bamberg",
"description": "74450",
"field_project_localitiy": "Bamberg",
"field_project_zip": 96047
}
},
{
"type": "Feature",
"geometry": {
"type": "Point",
"coordinates": [
9.353153,
49.4868047
]
},
"properties": {
"name": "Energetische Sanierung der Innenbeleuchtung in der Meister-Eckehardt-Schule",
"description": "74471",
"field_project_localitiy": "Buchen",
"field_project_zip": 74722
}
},
{
"type": "Feature",
"geometry": {
"type": "Point",
"coordinates": [
9.1829937,
47.661238
]
},
"properties": {
"name": "Erstellung eines Energienutzungsplans für die Stadt Konstanz zur koordinierten Umsetzung von Klimaschutzmaßnahmen in Bestand und Neubau, in den Bereichen erneuerbare Energien und integrierte Wärmenutzung",
"description": "74451",
"field_project_localitiy": "Konstanz",
"field_project_zip": 78462
}
},
{
"type": "Feature",
"geometry": {
"type": "Point",
"coordinates": [
9.5564424,
48.9333621
]
},
"properties": {
"name": "Sanierung der Straßenbeleuchtung in der Gemeinde Auenwald",
"description": "74472",
"field_project_localitiy": "Auenwald",
"field_project_zip": 71549
}
},
{
"type": "Feature",
"geometry": {
"type": "Point",
"coordinates": [
8.8830827,
50.2355175
]
},
"properties": {
"name": "Umrüstung von drei Fußgängersignalanlagen auf LED im Stadtgebiet von Nidderau",
"description": "74394",
"field_project_localitiy": "Nidderau",
"field_project_zip": 61130
}
},
{
"type": "Feature",
"geometry": {
"type": "Point",
"coordinates": [
10.9146107,
49.8698432
]
},
"properties": {
"name": "Einbau hocheffizienter LED-Beleuchtungstechnik bei der Sanierung von Lichtsignalanlagen im Stadtgebiet Bamberg - 2016/2017",
"description": "74417",
"field_project_localitiy": "Bamberg",
"field_project_zip": 96047
}
},
{
"type": "Feature",
"geometry": {
"type": "Point",
"coordinates": [
10.9146107,
49.8698432
]
},
"properties": {
"name": "Sanierung der Hallenbeleuchtung der oberen Turnhalle des E.T.A. Hoffmann Gymnasiums in Bamberg",
"description": "74435",
"field_project_localitiy": "Bamberg",
"field_project_zip": 96047
}
},
{
"type": "Feature",
"geometry": {
"type": "Point",
"coordinates": [
11.7558223,
48.175708
]
},
"properties": {
"name": "Sanierung von zwei LED-Lichtsignalanlagen in der Gemeinde Kirchheim b. München",
"description": "74395",
"field_project_localitiy": "Kirchheim",
"field_project_zip": 85551
}
},
{
"type": "Feature",
"geometry": {
"type": "Point",
"coordinates": [
7.5985319,
50.7880324
]
},
"properties": {
"name": "Beleuchtungssanierung Sonnenberg-Grundschule in Windeck-Rosbach, OT Obernau",
"description": "74418",
"field_project_localitiy": "Windeck",
"field_project_zip": 51570
}
},
{
"type": "Feature",
"geometry": {
"type": "Point",
"coordinates": [
10.9256107,
49.8698432
]
},
"properties": {
"name": "Sanierung der Hallenbeleuchtung der Turnhalle der Luitpoldschule in Bamberg",
"description": "74436",
"field_project_localitiy": "Bamberg",
"field_project_zip": 96047
}
},
{
"type": "Feature",
"geometry": {
"type": "Point",
"coordinates": [
8.6189443,
48.6576535
]
},
"properties": {
"name": "Sanierung der Außenbeleuchtung in der Gemeinde Neuweiler 2016-2017",
"description": "74396",
"field_project_localitiy": "Neuweiler",
"field_project_zip": 75389
}
},
{
"type": "Feature",
"geometry": {
"type": "Point",
"coordinates": [
8.7042492,
50.0880897
]
},
"properties": {
"name": "Klimaschutzteilkonzept für Erneuerbare Energien in Siedlungsgebieten der Stadt Frankfurt am Main",
"description": "74419",
"field_project_localitiy": "Frankfurt am Main",
"field_project_zip": 60311
}
},
{
"type": "Feature",
"geometry": {
"type": "Point",
"coordinates": [
10.8926107,
49.8698432
]
},
"properties": {
"name": "Sanierung der Hallenbeleuchtung der Turnhalle der Hainschule in Bamberg",
"description": "74437",
"field_project_localitiy": "Bamberg",
"field_project_zip": 96047
}
},
{
"type": "Feature",
"geometry": {
"type": "Point",
"coordinates": [
7.7816271,
51.2573883
]
},
"properties": {
"name": "Sanierung der Außenbeleuchtung in der Stadt Werdohl",
"description": "74398",
"field_project_localitiy": "Werdohl",
"field_project_zip": 58791
}
},
{
"type": "Feature",
"geometry": {
"type": "Point",
"coordinates": [
10.7937713,
49.8723768
]
},
"properties": {
"name": "Umrüstung der Hallenbeleuchtung auf LED-Technik in der Schulturnhalle (Grundschule) in der Gemeinde Walsdorf",
"description": "74420",
"field_project_localitiy": "Walsdorf",
"field_project_zip": 96194
}
},
{
"type": "Feature",
"geometry": {
"type": "Point",
"coordinates": [
10.6627981,
52.2469715
]
},
"properties": {
"name": "Sanierung der Innenbeleuchtung in der Grundschule Weddel",
"description": "74400",
"field_project_localitiy": "Cremlingen",
"field_project_zip": 38162
}
},
{
"type": "Feature",
"geometry": {
"type": "Point",
"coordinates": [
9.9215987,
52.6889266
]
},
"properties": {
"name": "Schwimmbad, Winsen (Aller)",
"description": "74421",
"field_project_localitiy": "Winsen (Aller)",
"field_project_zip": 29308
}
},
{
"type": "Feature",
"geometry": {
"type": "Point",
"coordinates": [
7.7099696,
52.2640008
]
},
"properties": {
"name": "Sanierung Straßenbeleuchtung Ibbenbüren, Wohnstraße-Hauptverkehrsstraße",
"description": "74401",
"field_project_localitiy": "Ibbenbüren",
"field_project_zip": 49477
}
},
{
"type": "Feature",
"geometry": {
"type": "Point",
"coordinates": [
13.3273053,
52.5151079
]
},
"properties": {
"name": "Energetische Sanierung der Beleuchtungsanlage in der Sporthalle Schloßstraße",
"description": "74422",
"field_project_localitiy": "Berlin",
"field_project_zip": 10585
}
},
{
"type": "Feature",
"geometry": {
"type": "Point",
"coordinates": [
10.2622504,
49.2862476
]
},
"properties": {
"name": "Sanierung der Innenbeleuchtung der Villa Roth in Schillingsfürst",
"description": "74402",
"field_project_localitiy": "Schillingsfürst",
"field_project_zip": 91583
}
},
{
"type": "Feature",
"geometry": {
"type": "Point",
"coordinates": [
10.9256107,
49.8698432
]
},
"properties": {
"name": "Sanierung der Hallenbeleuchtung der unteren Turnhalle des E.T.A. Hoffmann-Gymnasiums in Bamberg",
"description": "74423",
"field_project_localitiy": "Bamberg",
"field_project_zip": 96047
}
},
{
"type": "Feature",
"geometry": {
"type": "Point",
"coordinates": [
11.2780245,
49.4890483
]
},
"properties": {
"name": "Sanierung der Innenbeleuchtung der Grundschule Rudolfshof in der Stadt Lauf",
"description": "74403",
"field_project_localitiy": "Lauf a.d.Pegnitz",
"field_project_zip": 91207
}
},
{
"type": "Feature",
"geometry": {
"type": "Point",
"coordinates": [
10.8926107,
49.8698432
]
},
"properties": {
"name": "Sanierung der Hallenbeleuchtung der Turnhalle des Sportzentrums Gaustadt in Bamberg und der Turnhalle der Schule Wildensorg in Bamberg",
"description": "74424",
"field_project_localitiy": "Bamberg",
"field_project_zip": 96047
}
},
{
"type": "Feature",
"geometry": {
"type": "Point",
"coordinates": [
10.3534815,
48.0415038
]
},
"properties": {
"name": "Energetische Sanierung der Straßenbeleuchtung in Markt Erkheim",
"description": "74405",
"field_project_localitiy": "Erkheim",
"field_project_zip": 87746
}
},
{
"type": "Feature",
"geometry": {
"type": "Point",
"coordinates": [
13.1916922,
52.5076685
]
},
"properties": {
"name": "Sonnenschutzanlagen",
"description": "74426",
"field_project_localitiy": "Berlin",
"field_project_zip": 13595
}
},
{
"type": "Feature",
"geometry": {
"type": "Point",
"coordinates": [
8.0953266,
51.1037833
]
},
"properties": {
"name": "Energieeffiziente Sanierung der Beleuchtung im städtischen Parkhaus Gartenstraße",
"description": "74406",
"field_project_localitiy": "Lennestadt",
"field_project_zip": 57368
}
},
{
"type": "Feature",
"geometry": {
"type": "Point",
"coordinates": [
7.9837777,
52.675599
]
},
"properties": {
"name": "Sanierung der Straßenbeleuchtung in der Stadt Quakenbrück",
"description": "74427",
"field_project_localitiy": "Quakenbrück",
"field_project_zip": 49610
}
},
{
"type": "Feature",
"geometry": {
"type": "Point",
"coordinates": [
8.3016627,
47.6321272
]
},
"properties": {
"name": "Ausarbeitung einer Potenzialstudie zur Reduzierung von Treibhausgasemissionen der Deponien Lachengraben und Lottstetten",
"description": "74410",
"field_project_localitiy": "Waldshut-Tiengen",
"field_project_zip": 79761
}
},
{
"type": "Feature",
"geometry": {
"type": "Point",
"coordinates": [
13.3383053,
52.5151079
]
},
"properties": {
"name": "Energetische Sanierung der Beleuchtungsanlage in der Sporthalle Charlottenburg",
"description": "74428",
"field_project_localitiy": "Berlin",
"field_project_zip": 10585
}
},
{
"type": "Feature",
"geometry": {
"type": "Point",
"coordinates": [
8.2686627,
47.6101272
]
},
"properties": {
"name": "Ausarbeitung einer Potenzialstudie zur Reduzierung der Treibhausgasemissionen der Deponien Münchingen und Tiengen",
"description": "74411",
"field_project_localitiy": "Waldshut-Tiengen",
"field_project_zip": 79761
}
},
{
"type": "Feature",
"geometry": {
"type": "Point",
"coordinates": [
10.9036107,
49.8698432
]
},
"properties": {
"name": "Sanierung der Hallenbeleuchtung der Turnhalle des Dietzenhofer Gymnasiums in Bamberg",
"description": "74429",
"field_project_localitiy": "Bamberg",
"field_project_zip": 96047
}
},
{
"type": "Feature",
"geometry": {
"type": "Point",
"coordinates": [
7.1684549,
50.8080807
]
},
"properties": {
"name": "Klimaschutzteilkonzept - klimafreundliche Mobilität in Troisdorf",
"description": "74388",
"field_project_localitiy": "Troisdorf",
"field_project_zip": 53840
}
},
{
"type": "Feature",
"geometry": {
"type": "Point",
"coordinates": [
7.9410622,
48.2989483
]
},
"properties": {
"name": "Sanierung der Innenbeleuchtung in einem Veranstaltungsbau mit Zuschauerbereich, Foyer u. Bühne",
"description": "74412",
"field_project_localitiy": "Seelbach",
"field_project_zip": 77960
}
},
{
"type": "Feature",
"geometry": {
"type": "Point",
"coordinates": [
10.9146107,
49.8698432
]
},
"properties": {
"name": "Sanierung der Hallenbeleuchtung der Turnhalle der Schule Bug in Bamberg",
"description": "74430",
"field_project_localitiy": "Bamberg",
"field_project_zip": 96047
}
},
{
"type": "Feature",
"geometry": {
"type": "Point",
"coordinates": [
8.6869632,
50.1252751
]
},
"properties": {
"name": "Energetische Sanierung Innenbeleuchtung Tiefgarage Frankfurt University",
"description": "74389",
"field_project_localitiy": "Frankfurt am Main",
"field_project_zip": 60318
}
},
{
"type": "Feature",
"geometry": {
"type": "Point",
"coordinates": [
13.9506311,
52.2536713
]
},
"properties": {
"name": "Klimafreundliche Trinkwasserversorgung",
"description": "74414",
"field_project_localitiy": "Storkow",
"field_project_zip": 15859
}
},
{
"type": "Feature",
"geometry": {
"type": "Point",
"coordinates": [
10.9256107,
49.8698432
]
},
"properties": {
"name": "Sanierung der Hallenbeleuchtung der Turnhalle der Grundschule Gaustadt in Bamberg",
"description": "74431",
"field_project_localitiy": "Bamberg",
"field_project_zip": 96047
}
},
{
"type": "Feature",
"geometry": {
"type": "Point",
"coordinates": [
10.3480918,
47.6609921
]
},
"properties": {
"name": "Sanierung Beleuchtungsanlage Grundschule",
"description": "74390",
"field_project_localitiy": "Sulzberg",
"field_project_zip": 87477
}
},
{
"type": "Feature",
"geometry": {
"type": "Point",
"coordinates": [
8.662518,
49.8243483
]
},
"properties": {
"name": "Sanierung der Beleuchtung im Schulzentrum Marienhöhe in Darmstadt",
"description": "74415",
"field_project_localitiy": "Darmstadt",
"field_project_zip": 64297
}
},
{
"type": "Feature",
"geometry": {
"type": "Point",
"coordinates": [
10.8926107,
49.8698432
]
},
"properties": {
"name": "Sanierung der Hallenbeleuchtung der Hugo-von-Trimbergschule in Bamberg",
"description": "74432",
"field_project_localitiy": "Bamberg",
"field_project_zip": 96047
}
},
{
"type": "Feature",
"geometry": {
"type": "Point",
"coordinates": [
10.1289055,
50.4409617
]
},
"properties": {
"name": "Umrüstung der Sportstättenbeleuchtung der Turnhalle Oberelsbach auf hocheffizietne LED-Beleuchtung",
"description": "74391",
"field_project_localitiy": "Oberelsbach",
"field_project_zip": 97656
}
},
{
"type": "Feature",
"geometry": {
"type": "Point",
"coordinates": [
12.9574787,
48.8298515
]
},
"properties": {
"name": "Erneuerung der Innenbeleuchtung im Besprechungszimmer des Verwaltungsgebäudes des Landratsamtes Deggendorf durch hocheffiziente LED-Technik mit Lichtsteuerung",
"description": "74392",
"field_project_localitiy": "Deggendorf",
"field_project_zip": 94469
}
},
{
"type": "Feature",
"geometry": {
"type": "Point",
"coordinates": [
11.7782413,
49.9946518
]
},
"properties": {
"name": "Umrüstung der Straßenbeleuchtung von Warmensteinach auf hocheffiziente LED-Technik",
"description": "74416",
"field_project_localitiy": "Warmensteinach",
"field_project_zip": 95485
}
},
{
"type": "Feature",
"geometry": {
"type": "Point",
"coordinates": [
10.9036107,
49.8698432
]
},
"properties": {
"name": "Sanierung der Hallenbeleuchtung der Turnhalle der Rupprechtschule in Bamberg",
"description": "74433",
"field_project_localitiy": "Bamberg",
"field_project_zip": 96047
}
},
{
"type": "Feature",
"geometry": {
"type": "Point",
"coordinates": [
8.8873592,
52.2906793
]
},
"properties": {
"name": "Sanierung der Innenbeleuchtung im Familienzentrum St. Matthäus &quot;Arche&quot;",
"description": "74340",
"field_project_localitiy": "Minden",
"field_project_zip": 32427
}
},
{
"type": "Feature",
"geometry": {
"type": "Point",
"coordinates": [
8.0128987,
51.9318685
]
},
"properties": {
"name": "Klimaschutzteilkonzept Mobilität für den Radverkehr im Kreis Warendorf",
"description": "74358",
"field_project_localitiy": "Warendorf",
"field_project_zip": 48231
}
},
{
"type": "Feature",
"geometry": {
"type": "Point",
"coordinates": [
9.9797317,
50.8164917
]
},
"properties": {
"name": "Errichtung eines Radweges von Sünna über Hüttenroda nach Mühlwärts",
"description": "74375",
"field_project_localitiy": "Unterbreizbach",
"field_project_zip": 36414
}
},
{
"type": "Feature",
"geometry": {
"type": "Point",
"coordinates": [
7.1960189,
49.4043228
]
},
"properties": {
"name": "Erneuerung der Innen-Beleuchtung im KBBZ Neunkirchen 2.BA",
"description": "74341",
"field_project_localitiy": "Ottweiler",
"field_project_zip": 66564
}
},
{
"type": "Feature",
"geometry": {
"type": "Point",
"coordinates": [
7.0883237,
52.3783033
]
},
"properties": {
"name": "Radverkehrskonzept als Klimaschutzteilkonzept Mobilität für die Stadt Nordhorn",
"description": "74359",
"field_project_localitiy": "Nordhorn",
"field_project_zip": 48529
}
},
{
"type": "Feature",
"geometry": {
"type": "Point",
"coordinates": [
10.1964355,
48.0506484
]
},
"properties": {
"name": "Energetische Sanierung der Straßenbeleuchtung in der Gemeinde Niederrieden",
"description": "74376",
"field_project_localitiy": "Niederrieden",
"field_project_zip": 87767
}
},
{
"type": "Feature",
"geometry": {
"type": "Point",
"coordinates": [
7.6042103,
49.1829969
]
},
"properties": {
"name": "Sanierung der Außen- und Straßenbeleuchtung mittels LED-Technik in der Ortsgemeinde Eppenbrunn",
"description": "74344",
"field_project_localitiy": "Pirmasens",
"field_project_zip": 66953
}
},
{
"type": "Feature",
"geometry": {
"type": "Point",
"coordinates": [
7.9554831,
52.5298203
]
},
"properties": {
"name": "Sanierung der Innenbeleuchtung in der Grundschule Bersenbrück",
"description": "74360",
"field_project_localitiy": "Bersenbrück",
"field_project_zip": 49593
}
},
{
"type": "Feature",
"geometry": {
"type": "Point",
"coordinates": [
9.5238244,
49.3516431
]
},
"properties": {
"name": "Sanierung der Straßenbeleuchtung auf LED in Teilbereichen der Gemeinde Schöntal",
"description": "74377",
"field_project_localitiy": "Schöntal",
"field_project_zip": 74214
}
},
{
"type": "Feature",
"geometry": {
"type": "Point",
"coordinates": [
7.8944616,
52.7953588
]
},
"properties": {
"name": "Sanierung der Außen- und Straßenbeleuchtung Gemeinde Lastrup",
"description": "74345",
"field_project_localitiy": "Lastrup",
"field_project_zip": 49688
}
},
{
"type": "Feature",
"geometry": {
"type": "Point",
"coordinates": [
8.2381375,
49.8896748
]
},
"properties": {
"name": "Energetische Sanierung der Straßenbeleuchtung in Bubenheim",
"description": "74361",
"field_project_localitiy": "Bubenheim",
"field_project_zip": 55270
}
},
{
"type": "Feature",
"geometry": {
"type": "Point",
"coordinates": [
7.3020093,
51.2609475
]
},
"properties": {
"name": "Integriertes Klimaschutz- und Anpassungskonzept für die eigenen Zuständigkeiten des Ennepe-Ruhr-Kreis (IKAK)",
"description": "74379",
"field_project_localitiy": "Schwelm",
"field_project_zip": 58332
}
},
{
"type": "Feature",
"geometry": {
"type": "Point",
"coordinates": [
9.2603088,
51.5707506
]
},
"properties": {
"name": "LED- Umrüstung Rathaus Orgelstadt Borgentreich",
"description": "74346",
"field_project_localitiy": "Borgentreich",
"field_project_zip": 34434
}
},
{
"type": "Feature",
"geometry": {
"type": "Point",
"coordinates": [
8.2491375,
49.8896748
]
},
"properties": {
"name": "Energetische Sanierung der Straßenbeleuchtung in Engelstadt",
"description": "74362",
"field_project_localitiy": "Engelstadt",
"field_project_zip": 55270
}
},
{
"type": "Feature",
"geometry": {
"type": "Point",
"coordinates": [
8.225454,
49.8938667
]
},
"properties": {
"name": "Sanierung der Straßenbeleuchtung in der Stadt Nieder-Olm",
"description": "74380",
"field_project_localitiy": "Nieder-Olm",
"field_project_zip": 55268
}
},
{
"type": "Feature",
"geometry": {
"type": "Point",
"coordinates": [
9.9658938,
52.1242043
]
},
"properties": {
"name": "Erstellung eines Klimaschutz-Teilkonzeptes für 99 Gebäude im Bistum Hildesheim",
"description": "74347",
"field_project_localitiy": "Hildesheim",
"field_project_zip": 31134
}
},
{
"type": "Feature",
"geometry": {
"type": "Point",
"coordinates": [
9.3708325,
48.527536
]
},
"properties": {
"name": "Sanierung der Straßenbeleuchtung in der Gemeinde Dettingen an der Erms, Leuchtensysteme 1-4.",
"description": "74363",
"field_project_localitiy": "Dettingen an der Erms",
"field_project_zip": 72581
}
},
{
"type": "Feature",
"geometry": {
"type": "Point",
"coordinates": [
10.6219966,
52.4240219
]
},
"properties": {
"name": "Sanierung der Straßenbeleuchtung in der Gemeinde Calberlah auf LED",
"description": "74381",
"field_project_localitiy": "Calberlah",
"field_project_zip": 38547
}
},
{
"type": "Feature",
"geometry": {
"type": "Point",
"coordinates": [
7.6152103,
49.1829969
]
},
"properties": {
"name": "Sanierung der Außen- und Straßenbeleuchtung mittels LED-Technik in der Ortsgemeinde Eppenbrunn",
"description": "74348",
"field_project_localitiy": "Pirmasens",
"field_project_zip": 66953
}
},
{
"type": "Feature",
"geometry": {
"type": "Point",
"coordinates": [
8.3676644,
51.6690523
]
},
"properties": {
"name": "Sanierung der Innen- und Hallenbeleuchtung sowie Optimierung der Heizungs- und Warmwasserzirkulationsanlage der alten Doppelsporthalle der Gesamtschule Lippstadt",
"description": "74364",
"field_project_localitiy": "Lippstadt",
"field_project_zip": 59555
}
},
{
"type": "Feature",
"geometry": {
"type": "Point",
"coordinates": [
6.6009097,
51.5350798
]
},
"properties": {
"name": "Umstellung der Beleuchtung im Verwaltungsgebäude und der Arbeitshalle des Dienstleistungsbetriebs (DLB) der Stadt Rheinberg auf LED",
"description": "74382",
"field_project_localitiy": "Rheinberg",
"field_project_zip": 47495
}
},
{
"type": "Feature",
"geometry": {
"type": "Point",
"coordinates": [
7.097707,
51.4974358
]
},
"properties": {
"name": "Sanierung Straßenbeleuchtung in der Stadt Gelsenkirchen",
"description": "74349",
"field_project_localitiy": "Gelsenkirchen",
"field_project_zip": 45879
}
},
{
"type": "Feature",
"geometry": {
"type": "Point",
"coordinates": [
7.8969447,
49.4665206
]
},
"properties": {
"name": "Sanierung der Straßenbeleuchtung in der Ortsgemeinde Enkenbach-Alsenborn",
"description": "74365",
"field_project_localitiy": "Enkenbach-Alsenborn",
"field_project_zip": 67677
}
},
{
"type": "Feature",
"geometry": {
"type": "Point",
"coordinates": [
8.6726852,
49.8585282
]
},
"properties": {
"name": "Verbesserung der Radverkehrsinfrastruktur sowie Errichtung von Fahrradstraßen in Darmstadt (Baustein 1 und 2)",
"description": "74383",
"field_project_localitiy": "Darmstadt",
"field_project_zip": 64283
}
},
{
"type": "Feature",
"geometry": {
"type": "Point",
"coordinates": [
7.8715999,
52.4174052
]
},
"properties": {
"name": "Klimaschutz bei der LED-Außen- und Straßenbeleuchtung in den Gemeinden Neuenkirchen und Voltage",
"description": "74350",
"field_project_localitiy": "Neuenkirchen",
"field_project_zip": 49586
}
},
{
"type": "Feature",
"geometry": {
"type": "Point",
"coordinates": [
7.928735,
49.4437059
]
},
"properties": {
"name": "Sanierung der Straßenbeleuchtung in Hochspeyer",
"description": "74366",
"field_project_localitiy": "Hochspeyer",
"field_project_zip": 67691
}
},
{
"type": "Feature",
"geometry": {
"type": "Point",
"coordinates": [
14.548357,
52.3295384
]
},
"properties": {
"name": "Modernisierung der Innen- und Hallenbeleuchtung Betriebshof SVF",
"description": "74384",
"field_project_localitiy": "Frankfurt (Oder)",
"field_project_zip": 15232
}
},
{
"type": "Feature",
"geometry": {
"type": "Point",
"coordinates": [
11.8455871,
52.0748175
]
},
"properties": {
"name": "Sanierung der Straßenbeleuchtung mit LED-Leuchten in der Stadt Gommern",
"description": "74351",
"field_project_localitiy": "Gommern",
"field_project_zip": 39245
}
},
{
"type": "Feature",
"geometry": {
"type": "Point",
"coordinates": [
13.8561913,
51.4772614
]
},
"properties": {
"name": "Errichtung von Fahrradabstellanlagen am Hans-Fischer Stadion in Schwarzheide",
"description": "74367",
"field_project_localitiy": "Schwarzheide",
"field_project_zip": 1987
}
},
{
"type": "Feature",
"geometry": {
"type": "Point",
"coordinates": [
12.088083,
50.0995906
]
},
"properties": {
"name": "Umrüstung der Sportstättenbeleuchtung auf LED-Technik in der Mehrzweckhalle / Willi-Pöhlmann-Halle der Gemeinde Höchstädt im Fichtelgebirge (Turnhalle und Nebenräume / Umkleideräumen)",
"description": "74385",
"field_project_localitiy": "Höchstädt",
"field_project_zip": 95186
}
},
{
"type": "Feature",
"geometry": {
"type": "Point",
"coordinates": [
6.673859,
50.8530284
]
},
"properties": {
"name": "Integriertes Energie- und Klimaschutzkonzept für die Kolpingstadt Kerpen",
"description": "74352",
"field_project_localitiy": "Kerpen",
"field_project_zip": 50171
}
},
{
"type": "Feature",
"geometry": {
"type": "Point",
"coordinates": [
8.4232858,
51.922695
]
},
"properties": {
"name": "Errichtung von Radabstellanlagen an den Kreishäusern Gütersloh und Wiedenbrück",
"description": "74368",
"field_project_localitiy": "Gütersloh",
"field_project_zip": 33334
}
},
{
"type": "Feature",
"geometry": {
"type": "Point",
"coordinates": [
7.6934387,
51.3015239
]
},
"properties": {
"name": "Förderung eines Klimaschutzteilkonzepts für die eigenen Liegenschaften der Stadt Altena (Westf.)",
"description": "74386",
"field_project_localitiy": "Altena",
"field_project_zip": 58762
}
},
{
"type": "Feature",
"geometry": {
"type": "Point",
"coordinates": [
7.9444831,
52.5298203
]
},
"properties": {
"name": "Sanierung der Außenbeleuchtung auf dem Schulhof der Grundschule Bersenbrück",
"description": "74353",
"field_project_localitiy": "Bersenbrück",
"field_project_zip": 49593
}
},
{
"type": "Feature",
"geometry": {
"type": "Point",
"coordinates": [
7.8963928,
49.3983511
]
},
"properties": {
"name": "Sanierung der Straßenbeleuchtung in Fischbach",
"description": "74369",
"field_project_localitiy": "Fischbach",
"field_project_zip": 67693
}
},
{
"type": "Feature",
"geometry": {
"type": "Point",
"coordinates": [
11.3110245,
49.4890483
]
},
"properties": {
"name": "Klimaschutztechnologien bei der Stromnutzung der Stadt Lauf a.d.Pegnitz für den Bereich Außenbeleuchtung",
"description": "74354",
"field_project_localitiy": "Lauf a.d.Pegnitz",
"field_project_zip": 91207
}
},
{
"type": "Feature",
"geometry": {
"type": "Point",
"coordinates": [
9.4255019,
47.7193839
]
},
"properties": {
"name": "LED Beleuchtung in der Musikschule im Alten Schulhaus Markdorf",
"description": "74370",
"field_project_localitiy": "Markdorf",
"field_project_zip": 88677
}
},
{
"type": "Feature",
"geometry": {
"type": "Point",
"coordinates": [
8.9516305,
48.3012826
]
},
"properties": {
"name": "Einbau LED-Beleuchtung in der WfbM Bisingen",
"description": "74355",
"field_project_localitiy": "Bisingen",
"field_project_zip": 72406
}
},
{
"type": "Feature",
"geometry": {
"type": "Point",
"coordinates": [
7.9629799,
52.500317
]
},
"properties": {
"name": "Sanierung der Straßenbeleuchtung Alfhausen (LED)",
"description": "74371",
"field_project_localitiy": "Alfhausen",
"field_project_zip": 49594
}
},
{
"type": "Feature",
"geometry": {
"type": "Point",
"coordinates": [
11.63209,
49.9253569
]
},
"properties": {
"name": "Sanierung der Badehalle 01 in der Therme Obernsees",
"description": "74356",
"field_project_localitiy": "Bayreuth",
"field_project_zip": 95448
}
},
{
"type": "Feature",
"geometry": {
"type": "Point",
"coordinates": [
6.2237174,
50.7692791
]
},
"properties": {
"name": "Sanierung der RLT-Geräte des Rathauses in der Kupferstadt Stolberg",
"description": "74372",
"field_project_localitiy": "Stolberg",
"field_project_zip": 52222
}
},
{
"type": "Feature",
"geometry": {
"type": "Point",
"coordinates": [
11.9418852,
49.9505792
]
},
"properties": {
"name": "Umrüstung der Straßenbeleuchtung auf hocheffiziente LED-Technik",
"description": "74357",
"field_project_localitiy": "Ebnath",
"field_project_zip": 95683
}
},
{
"type": "Feature",
"geometry": {
"type": "Point",
"coordinates": [
7.9335329,
49.9217022
]
},
"properties": {
"name": "Sanierung der raumlufttechnischen Anlagen und Optimierung der Pumpen für Heizung und Warmwasser in der Turnhalle Bingen",
"description": "74373",
"field_project_localitiy": "Bingen am Rhein",
"field_project_zip": 55411
}
},
{
"type": "Feature",
"geometry": {
"type": "Point",
"coordinates": [
12.5761488,
51.3482636
]
},
"properties": {
"name": "Umstellung der Beleuchtung auf LED-Kita Panitzsch",
"description": "74298",
"field_project_localitiy": "Borsdorf",
"field_project_zip": 4451
}
},
{
"type": "Feature",
"geometry": {
"type": "Point",
"coordinates": [
8.5497146,
49.0045931
]
},
"properties": {
"name": "Beleuchtungssanierung Kiga/Hort/Schule Kleinsteinbach und Schule Berghausen",
"description": "74319",
"field_project_localitiy": "Pfinztal",
"field_project_zip": 76327
}
},
{
"type": "Feature",
"geometry": {
"type": "Point",
"coordinates": [
9.2369533,
48.45618
]
},
"properties": {
"name": "Sanierung der Lichtsignalanlage in der Stadt Pfullingen",
"description": "74300",
"field_project_localitiy": "Pfullingen",
"field_project_zip": 72793
}
},
{
"type": "Feature",
"geometry": {
"type": "Point",
"coordinates": [
14.3092474,
51.7451285
]
},
"properties": {
"name": "Klimaschutzkonzept Integrierte Wärmenutzung in Kommunen, insbesondere aus Abwasserwärmenutzung",
"description": "74320",
"field_project_localitiy": "Cottbus",
"field_project_zip": 3046
}
},
{
"type": "Feature",
"geometry": {
"type": "Point",
"coordinates": [
9.7642823,
47.9116998
]
},
"properties": {
"name": "Umrüstung Außen- und Straßenbeleuchtung auf LED-Technik",
"description": "74302",
"field_project_localitiy": "Bad Waldsee",
"field_project_zip": 88339
}
},
{
"type": "Feature",
"geometry": {
"type": "Point",
"coordinates": [
7.6219704,
50.3752264
]
},
"properties": {
"name": "Modernisierung Flur- und Treppenhausbeleuchtung im Rathaus der Verbandsgemeinde Vallendar",
"description": "74321",
"field_project_localitiy": "Vallendar",
"field_project_zip": 56179
}
},
{
"type": "Feature",
"geometry": {
"type": "Point",
"coordinates": [
10.6958786,
51.8677998
]
},
"properties": {
"name": "Modernisierung der Straßenbeleuchtung mittels LED-Leuchten in der Stadt Ilsenburg (Harz) und deren Ortsteile Darlingerode und Drübeck",
"description": "74303",
"field_project_localitiy": "Ilsenburg (Harz)",
"field_project_zip": 38871
}
},
{
"type": "Feature",
"geometry": {
"type": "Point",
"coordinates": [
7.8933428,
52.5411773
]
},
"properties": {
"name": "Umrüstung der Straßenbeleuchtung auf LED-Technik in der Gemeinde Ankum",
"description": "74322",
"field_project_localitiy": "Ankum",
"field_project_zip": 49577
}
},
{
"type": "Feature",
"geometry": {
"type": "Point",
"coordinates": [
8.0446405,
49.6629007
]
},
"properties": {
"name": "Sanierung der Hallenbeleuchtung in der Turnhalle Kirchheimbolanden",
"description": "74304",
"field_project_localitiy": "Kirchheimbolanden",
"field_project_zip": 67292
}
},
{
"type": "Feature",
"geometry": {
"type": "Point",
"coordinates": [
7.7837602,
51.9606122
]
},
"properties": {
"name": "Beleuchtungssanierung in der Sporthalle der Don-Bosco-Schule mit LED-Technik",
"description": "74323",
"field_project_localitiy": "Telgte",
"field_project_zip": 48291
}
},
{
"type": "Feature",
"geometry": {
"type": "Point",
"coordinates": [
9.2559213,
49.6909294
]
},
"properties": {
"name": "Sanierung der RLT-Geräte im Landratsamt Miltenberg",
"description": "74305",
"field_project_localitiy": "Miltenberg",
"field_project_zip": 63897
}
},
{
"type": "Feature",
"geometry": {
"type": "Point",
"coordinates": [
12.1774971,
49.7321499
]
},
"properties": {
"name": "Klimaschutzteilkonzept Klimafreundliche Abfallentsorgung",
"description": "74324",
"field_project_localitiy": "Neustadt a.d.Waldnaab",
"field_project_zip": 92660
}
},
{
"type": "Feature",
"geometry": {
"type": "Point",
"coordinates": [
8.8715298,
48.2748206
]
},
"properties": {
"name": "Sanierung der Straßenbeleuchtung Balingen 2016",
"description": "74306",
"field_project_localitiy": "Balingen",
"field_project_zip": 72336
}
},
{
"type": "Feature",
"geometry": {
"type": "Point",
"coordinates": [
11.9083343,
49.9592561
]
},
"properties": {
"name": "Umrüstung der Außenbeleuchtung auf hocheffiziente LED-Technik in der Gemeinde Brand in der Oberpfalz und ihren Ortsteilen",
"description": "74325",
"field_project_localitiy": "Brand",
"field_project_zip": 95682
}
},
{
"type": "Feature",
"geometry": {
"type": "Point",
"coordinates": [
8.7500625,
48.1089068
]
},
"properties": {
"name": "Umrüstung der Straßenbeleuchtung auf LED-Technik in der Gemeinde Denkingen - zweiter Bauabschnitt",
"description": "74307",
"field_project_localitiy": "Denkingen",
"field_project_zip": 78588
}
},
{
"type": "Feature",
"geometry": {
"type": "Point",
"coordinates": [
8.067704,
48.6300448
]
},
"properties": {
"name": "Modernisierung der Straßenbeleuchtung, mit LED Leuchten, in Achern, Oberachern und Fautenbach",
"description": "74326",
"field_project_localitiy": "Achern",
"field_project_zip": 77855
}
},
{
"type": "Feature",
"geometry": {
"type": "Point",
"coordinates": [
13.341727,
50.9128283
]
},
"properties": {
"name": "Erneuerung der Beleuchtung im Parkhaus Tivoli",
"description": "74289",
"field_project_localitiy": "Freiberg",
"field_project_zip": 9599
}
},
{
"type": "Feature",
"geometry": {
"type": "Point",
"coordinates": [
7.4797898,
51.3737728
]
},
"properties": {
"name": "Sanierung der Hallenbeleuchtung des Westfalenbades durch den Einbau von LED Beleuchtungstechnik",
"description": "74308",
"field_project_localitiy": "Hagen",
"field_project_zip": 58097
}
},
{
"type": "Feature",
"geometry": {
"type": "Point",
"coordinates": [
10.0882187,
48.4473473
]
},
"properties": {
"name": "Klimaschutz bei der LED Außen- und Straßenbeleuchtung: Umrüstung von NAV auf LED Straßenbeleuchtung in der Gemeinde Elchingen im Ortsteil Unterelchingen/Gewerbegebiet",
"description": "74327",
"field_project_localitiy": "Elchingen",
"field_project_zip": 89275
}
},
{
"type": "Feature",
"geometry": {
"type": "Point",
"coordinates": [
8.3566644,
51.6690523
]
},
"properties": {
"name": "Austausch der Lüftungsgeräte in der alten Doppelsporthalle der Gesamtschule Lippstadt",
"description": "74290",
"field_project_localitiy": "Lippstadt",
"field_project_zip": 59555
}
},
{
"type": "Feature",
"geometry": {
"type": "Point",
"coordinates": [
13.1410803,
52.3236954
]
},
"properties": {
"name": "Umstieg der Warmwasseraufbereitung von dezentral auf zentral in der Grundschule Saarmund",
"description": "74309",
"field_project_localitiy": "Nuthetal",
"field_project_zip": 14558
}
},
{
"type": "Feature",
"geometry": {
"type": "Point",
"coordinates": [
8.0018987,
51.9318685
]
},
"properties": {
"name": "Klimaschutzmanagement bei der Einführung von Energiesparmodellen in Schulen und Kindertagesstätten des Caritasverbandes im Kreisdekanat Warendorf e.V.",
"description": "74329",
"field_project_localitiy": "Warendorf",
"field_project_zip": 48231
}
},
{
"type": "Feature",
"geometry": {
"type": "Point",
"coordinates": [
12.1311352,
49.3198883
]
},
"properties": {
"name": "Sanierung des RLT-Gerätes des Hallenbades in Dachelhofen in der Stadt Schwandorf",
"description": "74291",
"field_project_localitiy": "Schwandorf",
"field_project_zip": 92421
}
},
{
"type": "Feature",
"geometry": {
"type": "Point",
"coordinates": [
13.002583,
51.557934
]
},
"properties": {
"name": "Klimaschutzteilkonzept Klimafreundliche Wasserversorgung",
"description": "74310",
"field_project_localitiy": "Torgau",
"field_project_zip": 4860
}
},
{
"type": "Feature",
"geometry": {
"type": "Point",
"coordinates": [
6.8865832,
52.5926118
]
},
"properties": {
"name": "Sanierung von Straßenbeleuchtungsanlagen (LED) OT Laar Hauptstraße und Dorfstraße sowie Volzeler Mühlenweg in Emlichheim",
"description": "74330",
"field_project_localitiy": "Emlichheim",
"field_project_zip": 49824
}
},
{
"type": "Feature",
"geometry": {
"type": "Point",
"coordinates": [
11.8244493,
48.2161513
]
},
"properties": {
"name": "Neue LED-Beleuchtung in 5 Klassenzimmern im Westtrakt des Schulgebäudes",
"description": "74292",
"field_project_localitiy": "Finsing",
"field_project_zip": 85464
}
},
{
"type": "Feature",
"geometry": {
"type": "Point",
"coordinates": [
6.9003217,
52.493764
]
},
"properties": {
"name": "Sanierung der Mastauslegerleuchten mit LED-Leuchten in der Gemeinde Uelsen",
"description": "74311",
"field_project_localitiy": "Uelsen",
"field_project_zip": 49843
}
},
{
"type": "Feature",
"geometry": {
"type": "Point",
"coordinates": [
7.9774831,
52.5518203
]
},
"properties": {
"name": "Sanierung der Außen- und Straßenbeleuchtung Samtgemeinde Bersenbrück",
"description": "74333",
"field_project_localitiy": "Bersenbrück",
"field_project_zip": 49593
}
},
{
"type": "Feature",
"geometry": {
"type": "Point",
"coordinates": [
12.5541488,
51.3482636
]
},
"properties": {
"name": "Umstellung der Beleuchtung auf LED-GS Panitzsch",
"description": "74293",
"field_project_localitiy": "Borsdorf",
"field_project_zip": 4451
}
},
{
"type": "Feature",
"geometry": {
"type": "Point",
"coordinates": [
12.5651488,
51.3482636
]
},
"properties": {
"name": "Umstellung der Beleuchtung auf LED-Rathaus,Turnhalle",
"description": "74294",
"field_project_localitiy": "Borsdorf",
"field_project_zip": 4451
}
},
{
"type": "Feature",
"geometry": {
"type": "Point",
"coordinates": [
9.0564631,
48.2136917
]
},